[
  {
    "name": "Georgetown Brewing Company",
    "street": "5840 Airport Way S #201",
    "city": "Seattle",
    "state": "WA",
    "zip": "98108",
    "address": "5840 Airport Way S, Seattle, WA 98108, USA",
    "schedule": {
      "monday": {
        "open": "10:00",
        "close": "18:00"
      },
      "tuesday": {
        "open": "10:00",
        "close": "18:00"
      },
      "wednesday": {
        "open": "10:00",
        "close": "18:00"
      },
      "thursday": {
        "open": "10:00",
        "close": "18:00"
      },
      "friday": {
        "open": "10:00",
        "close": "18:00"
      },
      "saturday": {
        "open": "10:00",
        "close": "16:00"
      },
      "sunday": {}
    },
    "contact": {
      "facebook": "https://www.facebook.com/Georgetown-Brewing-19221622538/",
      "twitter_link": "https://twitter.com/GeorgetownBeer",
      "twitter_screen_name": "GeorgetownBeer",
      "website": "http://georgetownbeer.com/"
    },
    "geometry": {
      "coordinates": [ -122.3179016, 47.5505918 ],
      "type": "Point"
    }
  },
  {
    "name": "Maritime Pacific Brewing Company",
    "street": "1514 NW Leary Way",
    "city": "Seattle",
    "state": "WA",
    "zip": "98107",
    "address": "1514 NW Leary Way, Seattle, WA 98107",
    "schedule": {
      "monday": {
        "open": "11:00",
        "close": "23:00"
      },
      "tuesday": {
        "open": "11:00",
        "close": "23:00"
      },
      "wednesday": {
        "open": "11:00",
        "close": "23:00"
      },
      "thursday": {
        "open": "11:00",
        "close": "23:00"
      },
      "friday": {
        "open": "11:00",
        "close": "0:00"
      },
      "saturday": {
        "open": "11:00",
        "close": "0:00"
      },
      "sunday": {
        "open": "12:00",
        "close": "21:00"
      }
    },
    "contact": {
      "facebook": "https://www.facebook.com/Maritime-Pacific-Brewery-130576053648026/",
      "twitter_link": "https://twitter.com/MaritimePacific",
      "twitter_screen_name": "MaritimePacific",
      "website": "http://maritimebrewery.com/"
    },
    "geometry": {
      "coordinates": [
        -122.3770908,
        47.6638963
      ],
      "type": "Point"
    }
  },
  {
    "name": "Big Al Brewing",
    "street": "9832 14th Ave SW",
    "city": "Seattle",
    "state": "WA",
    "zip": "98106",
    "address": "9832 14th Ave SW, Seattle, WA 98106",
    "schedule": {
      "monday": {
        "open": "15:00",
        "close": "21:00"
      },
      "tuesday": {
        "open": "15:00",
        "close": "21:00"
      },
      "wednesday": {
        "open": "15:00",
        "close": "21:00"
      },
      "thursday": {
        "open": "15:00",
        "close": "21:00"
      },
      "friday": {
        "open": "15:00",
        "close": "22:00"
      },
      "saturday": {
        "open": "14:00",
        "close": "22:00"
      },
      "sunday": {
        "open": "14:00",
        "close": "19:00"
      }
    },
    "contact": {
      "facebook": "https://www.facebook.com/bigalbrewing/",
      "twitter_link": "https://twitter.com/big_al_brewing",
      "twitter_screen_name": "big_al_brewing",
      "website": "https://bigalbrewing.wordpress.com/"
    },
    "geometry": {
      "coordinates": [
        -122.352381,
        47.514338
      ],
      "type": "Point"
    }
  },
  {
    "name": "Fremont Brewing Company",
    "street": "3409 Woodland Park Avenue North",
    "city": "Seattle",
    "state": "WA",
    "zip": "98103",
    "address": "3409 Woodland Park Avenue North, Seattle, WA 98103",
    "schedule": {
      "monday": {
        "open": "11:00",
        "close": "21:00"
      },
      "tuesday": {
        "open": "11:00",
        "close": "21:00"
      },
      "wednesday": {
        "open": "11:00",
        "close": "21:00"
      },
      "thursday": {
        "open": "11:00",
        "close": "21:00"
      },
      "friday": {
        "open": "11:00",
        "close": "21:00"
      },
      "saturday": {
        "open": "11:00",
        "close": "21:00"
      },
      "sunday": {
        "open": "11:00",
        "close": "21:00"
      }
    },
    "contact": {
      "facebook": "https://www.facebook.com/Fremont-Brewing-Company-128777587151652/",
      "twitter_link": "https://twitter.com/fremontbrewing",
      "twitter_screen_name": "fremontbrewing",
      "website": "http://www.fremontbrewing.com/"
    },
    "geometry": {
      "coordinates": [
        -122.344303,
        47.6491625
      ],
      "type": "Point"
    }
  },
  {
    "name": "Odin Brewing",
    "street": "402 Baker Blvd",
    "city": "Seattle",
    "state": "WA",
    "zip": "98188",
    "address": "402 Baker Blvd, Tukwila, WA 98188",
    "schedule": {
      "monday": {
        "open": "14:00",
        "close": "21:00"
      },
      "tuesday": {
        "open": "14:00",
        "close": "21:00"
      },
      "wednesday": {
        "open": "14:00",
        "close": "21:00"
      },
      "thursday": {
        "open": "14:00",
        "close": "21:00"
      },
      "friday": {
        "open": "12:00",
        "close": "23:00"
      },
      "saturday": {
        "open": "12:00",
        "close": "23:00"
      },
      "sunday": {
        "open": "12:00",
        "close": "20:00"
      }
    },
    "contact": {
      "facebook": "https://www.facebook.com/Odinbrewing",
      "twitter_link": "https://twitter.com/OdinBrewingCo",
      "twitter_screen_name": "OdinBrewingCo",
      "website": "https://odinbrewing.wordpress.com/"
    },
    "geometry": {
      "coordinates": [
        -122.2520835,
        47.4586201
      ],
      "type": "Point"
    }
  },
  {
    "name": "Northwest Peaks Brewery (the Bergschrund)",
    "street": "4818 17th Ave NW",
    "city": "Seattle",
    "state": "WA",
    "zip": "98107",
    "address": "4818 17th Ave NW, Seattle, WA 98107",
    "schedule": {
      "monday": {
        "open": "15:00",
        "close": "23:00"
      },
      "tuesday": {
        "open": "15:00",
        "close": "23:00"
      },
      "wednesday": {
        "open": "15:00",
        "close": "23:00"
      },
      "thursday": {
        "open": "15:00",
        "close": "23:00"
      },
      "friday": {
        "open": "15:00",
        "close": "1:00"
      },
      "saturday": {
        "open": "11:30",
        "close": "1:00"
      },
      "sunday": {
        "open": "11:30",
        "close": "21:00"
      }
    },
    "contact": {
      "facebook": "https://www.facebook.com/NWPeaksBrewery",
      "twitter_link": "https://twitter.com/NWPeaksBrewery",
      "twitter_screen_name": "NWPeaksBrewery",
      "website": "http://www.nwpeaksbrewery.com/"
    },
    "geometry": {
      "coordinates": [
        -122.3786404,
        47.6642489
      ],
      "type": "Point"
    }
  },
  {
    "name": "Hilliard's Beer",
    "street": "1550 NW 49th Street",
    "city": "Seattle",
    "state": "WA",
    "zip": "98107",
    "address": "1550 NW 49th Street, Seattle, WA 98107",
    "schedule": {
      "monday": {
        "open": "15:00",
        "close": "22:00"
      },
      "tuesday": {
        "open": "15:00",
        "close": "22:00"
      },
      "wednesday": {
        "open": "15:00",
        "close": "22:00"
      },
      "thursday": {
        "open": "15:00",
        "close": "22:00"
      },
      "friday": {
        "open": "15:00",
        "close": "23:00"
      },
      "saturday": {
        "open": "12:00",
        "close": "23:00"
      },
      "sunday": {
        "open": "12:00",
        "close": "19:00"
      }
    },
    "contact": {
      "facebook": "https://www.facebook.com/HilliardsBeer",
      "twitter_link": "https://twitter.com/HilliardsBeer",
      "twitter_screen_name": "HilliardsBeer",
      "website": "http://www.hilliardsbeer.com/"
    },
    "geometry": {
      "coordinates": [
        -122.3780509,
        47.664623
      ],
      "type": "Point"
    }
  },
  {
    "name": "Two Beers Brewing Co. (The Woods)",
    "street": "4700 Ohio Ave S",
    "city": "Seattle",
    "state": "WA",
    "zip": "98134",
    "address": "4700 Ohio Ave S, Seattle, WA 98134",
    "schedule": {
      "monday": {},
      "tuesday": {
        "open": "15:00",
        "close": "21:00"
      },
      "wednesday": {
        "open": "15:00",
        "close": "21:00"
      },
      "thursday": {
        "open": "15:00",
        "close": "21:00"
      },
      "friday": {
        "open": "15:00",
        "close": "22:00"
      },
      "saturday": {
        "open": "13:00",
        "close": "22:00"
      },
      "sunday": {
        "open": "13:00",
        "close": "18:00"
      }
    },
    "contact": {
      "facebook": "https://www.facebook.com/TwoBeersBrewing",
      "twitter_link": "https://twitter.com/twobeersbrewing",
      "twitter_screen_name": "twobeersbrewing",
      "website": "http://www.twobeersbrewery.com/"
    },
    "geometry": {
      "coordinates": [
        -122.3377055,
        47.560333
      ],
      "type": "Point"
    }
  },
  {
    "name": "Reuben's Brews",
    "street": "5010 14th Ave NW",
    "city": "Seattle",
    "state": "WA",
    "zip": "98107",
    "address": "5010 14th Ave NW, Seattle, WA 98107",
    "schedule": {
      "monday": {
        "open": "15:00",
        "close": "21:00"
      },
      "tuesday": {
        "open": "15:00",
        "close": "21:00"
      },
      "wednesday": {
        "open": "15:00",
        "close": "21:00"
      },
      "thursday": {
        "open": "15:00",
        "close": "21:00"
      },
      "friday": {
        "open": "12:00",
        "close": "21:00"
      },
      "saturday": {
        "open": "12:00",
        "close": "21:00"
      },
      "sunday": {
        "open": "12:00",
        "close": "21:00"
      }
    },
    "contact": {
      "facebook": "https://www.facebook.com/Reubensbrews/",
      "twitter_link": "https://twitter.com/Reubensbrews",
      "twitter_screen_name": "Reubensbrews",
      "website": "http://www.reubensbrews.com/"
    },
    "geometry": {
      "coordinates": [
        -122.3730986,
        47.66539789999999
      ],
      "type": "Point"
    }
  },
  {
    "name": "Machine House Brewing",
    "street": "5840 Airport Way S",
    "city": "Seattle",
    "state": "WA",
    "zip": "98108",
    "address": "5840 Airport Way S, Seattle, WA 98108",
    "schedule": {
      "monday": {},
      "tuesday": {},
      "wednesday": {
        "open": "15:00",
        "close": "21:00"
      },
      "thursday": {
        "open": "15:00",
        "close": "21:00"
      },
      "friday": {
        "open": "15:00",
        "close": "21:00"
      },
      "saturday": {
        "open": "12:00",
        "close": "21:00"
      },
      "sunday": {
        "open": "12:00",
        "close": "18:00"
      }
    },
    "contact": {
      "facebook": "https://www.facebook.com/MachineHouseBrewery",
      "twitter_link": "https://twitter.com/machinehouse",
      "twitter_screen_name": "machinehouse",
      "website": "http://www.machinehousebrewery.com/"
    },
    "geometry": {
      "coordinates": [
        -122.3179016,
        47.5505918
      ],
      "type": "Point"
    }
  },
  {
    "name": "Peddler Brewing Company",
    "street": "1514 NW Leary Way",
    "city": "Seattle",
    "state": "WA",
    "zip": "98107",
    "address": "1514 NW Leary Way, Seattle, WA 98107",
    "schedule": {
      "monday": {},
      "tuesday": {},
      "wednesday": {
        "open": "16:00",
        "close": "22:00"
      },
      "thursday": {
        "open": "16:00",
        "close": "23:00"
      },
      "friday": {
        "open": "16:00",
        "close": "23:00"
      },
      "saturday": {
        "open": "11:00",
        "close": "23:00"
      },
      "sunday": {
        "open": "12:00",
        "close": "20:00"
      }
    },
    "contact": {
      "facebook": "https://www.facebook.com/PeddlerBrewing",
      "twitter_link": "https://twitter.com/PeddlerBrewing",
      "twitter_screen_name": "PeddlerBrewing",
      "website": "http://www.peddlerbrewing.com/"
    },
    "geometry": {
      "coordinates": [
        -122.3770908,
        47.6638963
      ],
      "type": "Point"
    }
  },
  {
    "name": "Populuxe Brewing",
    "street": "826B NW 49th St",
    "city": "Seattle",
    "state": "WA",
    "zip": "98107",
    "address": "826B NW 49th St, Seattle, WA 98107",
    "schedule": {
      "monday": {},
      "tuesday": {},
      "wednesday": {},
      "thursday": {
        "open": "16:30",
        "close": "21:00"
      },
      "friday": {
        "open": "16:30",
        "close": "22:00"
      },
      "saturday": {
        "open": "12:00",
        "close": "22:00"
      },
      "sunday": {
        "open": "13:00",
        "close": "20:00"
      }
    },
    "contact": {
      "facebook": "https://www.facebook.com/PopuluxeBrewing",
      "twitter_link": "https://twitter.com/PopuluxeBrewing",
      "twitter_screen_name": "PopuluxeBrewing",
      "website": "http://www.populuxebrewing.com/"
    },
    "geometry": {
      "coordinates": [
        -122.367549,
        47.6645826
      ],
      "type": "Point"
    }
  },
  {
    "name": "West Seattle Brewing Company",
    "street": "4415 Fauntleroy Way SW",
    "city": "Seattle",
    "state": "WA",
    "zip": "98126",
    "address": "4415 Fauntleroy Way SW, Seattle, WA 98126",
    "schedule": {
      "monday": {
        "open": "15:00",
        "close": "23:00"
      },
      "tuesday": {
        "open": "15:00",
        "close": "23:00"
      },
      "wednesday": {
        "open": "15:00",
        "close": "23:00"
      },
      "thursday": {
        "open": "15:00",
        "close": "23:00"
      },
      "friday": {
        "open": "15:00",
        "close": "0:00"
      },
      "saturday": {
        "open": "13:00",
        "close": "0:00"
      },
      "sunday": {
        "open": "13:00",
        "close": "0:00"
      }
    },
    "contact": {
      "facebook": "https://www.facebook.com/westseattlebrewingco/",
      "twitter_link": "https://twitter.com/ws_brewing",
      "twitter_screen_name": "ws_brewing",
      "website": "http://westseattlebrewing.com/"
    },
    "geometry": {
      "coordinates": [
        -122.3776532,
        47.5643571
      ],
      "type": "Point"
    }
  },
  {
    "name": "Standard Brewing",
    "street": "2504 S Jackson St",
    "city": "Seattle",
    "state": "WA",
    "zip": "98144",
    "address": "2504 S Jackson St, Seattle, WA 98144",
    "schedule": {
      "monday": {},
      "tuesday": {},
      "wednesday": {
        "open": "16:00",
        "close": "20:00"
      },
      "thursday": {
        "open": "16:00",
        "close": "20:00"
      },
      "friday": {
        "open": "16:00",
        "close": "20:00"
      },
      "saturday": {
        "open": "14:00",
        "close": "20:00"
      },
      "sunday": {
        "open": "14:00",
        "close": "20:00"
      }
    },
    "contact": {
      "facebook": "https://www.facebook.com/StandardBrewing",
      "twitter_link": "https://twitter.com/StandardBrewing",
      "twitter_screen_name": "StandardBrewing",
      "website": "http://standardbrew.com/"
    },
    "geometry": {
      "coordinates": [
        -122.2995779,
        47.5994442
      ],
      "type": "Point"
    }
  },
  {
    "name": "Rooftop Brewing Company",
    "street": "1220 W Nickerson St",
    "city": "Seattle",
    "state": "WA",
    "zip": "98109",
    "address": "1220 W Nickerson St, Seattle, WA 98119",
    "schedule": {
      "monday": {
        "open": "15:00",
        "close": "21:00"
      },
      "tuesday": {
        "open": "15:00",
        "close": "21:00"
      },
      "wednesday": {
        "open": "15:00",
        "close": "21:00"
      },
      "thursday": {
        "open": "15:00",
        "close": "22:00"
      },
      "friday": {
        "open": "15:00",
        "close": "22:00"
      },
      "saturday": {
        "open": "12:00",
        "close": "22:00"
      },
      "sunday": {
        "open": "12:00",
        "close": "20:00"
      }
    },
    "contact": {
      "facebook": "https://www.facebook.com/RooftopBrewCo/",
      "twitter_link": "https://twitter.com/RooftopBrewCo",
      "twitter_screen_name": "RooftopBrewCo",
      "website": "http://rooftopbrewco.com/"
    },
    "geometry": {
      "coordinates": [
        -122.3730974,
        47.655811
      ],
      "type": "Point"
    }
  },
  {
    "name": "Seapine Brewing Company",
    "street": "3828 4th Ave S Ste 2",
    "city": "Seattle",
    "state": "WA",
    "zip": "98134",
    "address": "3828 4th Ave S Ste 2, Seattle, WA 98134",
    "schedule": {
      "monday": {},
      "tuesday": {},
      "wednesday": {},
      "thursday": {},
      "friday": {},
      "saturday": {},
      "sunday": {}
    },
    "contact": {
      "facebook": "https://www.facebook.com/SeapineBrewingCompany",
      "twitter_link": "https://twitter.com/seapinebrewing",
      "twitter_screen_name": "seapinebrewing",
      "website": "http://seapinebrewing.com/"
    },
    "geometry": {
      "coordinates": [
        -122.3286055,
        47.5692032
      ],
      "type": "Point"
    }
  },
  {
    "name": "Tin Dog Brewing",
    "street": "309 S Cloverdale St. Unit A2",
    "city": "Seattle",
    "state": "WA",
    "zip": "98108",
    "address": "309 S Cloverdale St. Unit A2, Seattle, WA 98108",
    "schedule": {
      "monday": {},
      "tuesday": {
        "open": "16:00",
        "close": "20:00"
      },
      "wednesday": {
        "open": "16:00",
        "close": "20:00"
      },
      "thursday": {
        "open": "16:00",
        "close": "20:00"
      },
      "friday": {
        "open": "16:00",
        "close": "20:00"
      },
      "saturday": {
        "open": "15:00",
        "close": "19:00"
      },
      "sunday": {
        "open": "15:00",
        "close": "19:00"
      }
    },
    "contact": {
      "facebook": "https://www.facebook.com/TinDogBrewing",
      "twitter_link": "https://twitter.com/tindogbrewing",
      "twitter_screen_name": "tindogbrewing",
      "website": "http://tindogbrewing.com/"
    },
    "geometry": {
      "coordinates": [
        -122.3302815,
        47.5256844
      ],
      "type": "Point"
    }
  },
  {
    "name": "Stoup Brewing",
    "street": "1108 NW 52nd St.",
    "city": "Seattle",
    "state": "WA",
    "zip": "98107",
    "address": "1108 NW 52nd St., Seattle, WA 98107",
    "schedule": {
      "monday": {},
      "tuesday": {
        "open": "15:00",
        "close": "21:00"
      },
      "wednesday": {
        "open": "15:00",
        "close": "21:00"
      },
      "thursday": {
        "open": "15:00",
        "close": "21:00"
      },
      "friday": {
        "open": "15:00",
        "close": "22:00"
      },
      "saturday": {
        "open": "12:00",
        "close": "22:00"
      },
      "sunday": {
        "open": "12:00",
        "close": "21:00"
      }
    },
    "contact": {
      "facebook": "https://www.facebook.com/StoupBrewing",
      "twitter_link": "https://twitter.com/stoupbrewing",
      "twitter_screen_name": "stoupbrewing",
      "website": "http://www.stoupbrewing.com/"
    },
    "geometry": {
      "coordinates": [
        -122.371202,
        47.6666529
      ],
      "type": "Point"
    }
  },
  {
    "name": "Burdick Brewery",
    "street": "783 S Elmgrove St",
    "city": "Seattle",
    "state": "WA",
    "zip": "98108",
    "address": "783 S Elmgrove St, Seattle, WA 98108",
    "contact": {
      "facebook": "",
      "twitter_link": "",
      "website": ""
    },
    "geometry": {
      "coordinates": [
        -122.3251868,
        47.53054119999999
      ],
      "type": "Point"
    }
  },
  {
    "name": "Lowercase Brewing",
    "street": "8103 8th Ave S.",
    "city": "Seattle",
    "state": "WA",
    "zip": "98108",
    "address": "8103 8th Ave S., Seattle, WA 98108",
    "contact": {
      "facebook": "",
      "twitter_link": "",
      "website": ""
    },
    "geometry": {
      "coordinates": [
        -122.3231782,
        47.53038890000001
      ],
      "type": "Point"
    }
  },
  {
    "name": "Spinnaker Bay Brewing",
    "street": "5718 Rainier Ave S",
    "city": "Seattle",
    "state": "WA",
    "zip": "98118",
    "address": "5718 Rainier Ave S, Seattle, WA 98118",
    "contact": {
      "facebook": "",
      "twitter_link": "",
      "website": ""
    },
    "geometry": {
      "coordinates": [
        -122.2770789,
        47.5507863
      ],
      "type": "Point"
    }
  },
  {
    "name": "Bluebird Microcreamery and Brewery",
    "street": "7400 Greenwood Ave N",
    "city": "Seattle",
    "state": "WA",
    "zip": "98103",
    "address": "7400 Greenwood Ave N, Seattle, WA 98103",
    "contact": {
      "facebook": "",
      "twitter_link": "",
      "website": ""
    },
    "geometry": {
      "coordinates": [
        -122.3550469,
        47.6826527
      ],
      "type": "Point"
    }
  },
  {
    "name": "Bad Jimmy's Brewing Co.",
    "street": "4358 B Leary Way NW",
    "city": "Seattle",
    "state": "WA",
    "zip": "98107",
    "address": "4358 B Leary Way NW, Seattle, WA 98107",
    "contact": {
      "facebook": "",
      "twitter_link": "",
      "website": ""
    },
    "geometry": {
      "coordinates": [
        -122.3657552,
        47.6603168
      ],
      "type": "Point"
    }
  },
  {
    "name": "Flying Lion Brewing",
    "street": "5041 Rainier Avenue S",
    "city": "Seattle",
    "state": "WA",
    "zip": "98118",
    "address": "5041 Rainier Avenue S, Seattle, WA 98118",
    "contact": {
      "facebook": "",
      "twitter_link": "",
      "website": ""
    },
    "geometry": {
      "coordinates": [
        -122.2842903,
        47.5559893
      ],
      "type": "Point"
    }
  },
  {
    "name": "Urban Family Brewing",
    "street": "4441 26th Ave W",
    "city": "Seattle",
    "state": "WA",
    "zip": "98199",
    "address": "4441 26th Ave W, Seattle, WA 98199",
    "contact": {
      "facebook": "",
      "twitter_link": "",
      "website": ""
    },
    "geometry": {
      "coordinates": [
        -122.3899519,
        47.6605583
      ],
      "type": "Point"
    }
  },
  {
    "name": "Counterbalance Brewing Co.",
    "street": "503 South Michigan Street, Suite B",
    "city": "Seattle",
    "state": "WA",
    "zip": "98108",
    "address": "503 South Michigan Street, Suite B, Seattle, WA 98108",
    "contact": {
      "facebook": "",
      "twitter_link": "",
      "website": ""
    },
    "geometry": {
      "coordinates": [
        -122.3280271,
        47.5455529
      ],
      "type": "Point"
    }
  },
  {
    "name": "Holy Mountain Brewing",
    "street": "1421 Elliott Ave W.",
    "city": "Seattle",
    "state": "WA",
    "zip": "98119",
    "address": "1421 Elliott Ave W., Seattle, WA 98119",
    "contact": {
      "facebook": "",
      "twitter_link": "",
      "website": ""
    },
    "geometry": {
      "coordinates": [
        -122.3745168,
        47.6308076
      ],
      "type": "Point"
    }
  },
  {
    "name": "Hellbent Brewing Co.",
    "street": "13035 Lake City Way NE",
    "city": "Seattle",
    "state": "WA",
    "zip": "98125",
    "address": "13035 Lake City Way NE, Seattle, WA 98125",
    "contact": {
      "facebook": "",
      "twitter_link": "",
      "website": ""
    },
    "geometry": {
      "coordinates": [
        -122.293177,
        47.7239727
      ],
      "type": "Point"
    }
  },
  {
    "name": "Lantern Brewing Co.",
    "street": "938 N 95TH ST",
    "city": "Seattle",
    "state": "WA",
    "zip": "98103",
    "address": "938 N 95TH ST, Seattle, WA 98103",
    "contact": {
      "facebook": "",
      "twitter_link": "",
      "website": ""
    },
    "geometry": {
      "coordinates": [
        -122.345602,
        47.698077
      ],
      "type": "Point"
    }
  },
  {
    "name": "Ghostfish Brewing Co.",
    "street": "2942 1st Ave. S.",
    "city": "Seattle",
    "state": "WA",
    "zip": "98134",
    "address": "2942 1st Ave. S., Seattle, WA 98134",
    "contact": {
      "facebook": "",
      "twitter_link": "",
      "website": ""
    },
    "geometry": {
      "coordinates": [
        -122.3338489,
        47.5762875
      ],
      "type": "Point"
    }
  },
  {
    "name": "Lucky Envelope Brewing",
    "street": "907 NW 50th St",
    "city": "Seattle",
    "state": "WA",
    "zip": "98107",
    "address": "907 NW 50th St, Seattle, WA 98107",
    "contact": {
      "facebook": "",
      "twitter_link": "",
      "website": ""
    },
    "geometry": {
      "coordinates": [
        -122.3691164,
        47.6648778
      ],
      "type": "Point"
    }
  }
]
