[
  {
    "name": "Barriga Llena",
    "cuisine": "Mexican",
    "payment": "Cash or Cards",
    "description": "Barriga Llena was the first vendor to introduce traditional Mexican tortas to Seattle, just the way you have them in Mexico City.",
    "schedule": {
      "monday": {
        "address": "Harrison St & Boren Ave N, Seattle, WA 98109, USA",
        "open": "11:00",
        "close": "14:00",
        "geometry": {
          "coordinates": [
            -122.3358359,
            47.6220217
          ],
          "type": "Point"
        }
      },
      "tuesday": {},
      "wednesday": {},
      "thursday": {},
      "friday": {},
      "saturday": {},
      "sunday": {}
    },
    "contact": {
      "facebook": "https://www.facebook.com/barrigallenaseattle",
      "twitter_link": "https://twitter.com/barrigallena",
      "twitter_screen_name": "barrigallena",
      "website": "http://www.labarrigallena.com"
    }
  },
  {
    "name": "314 PIE",
    "cuisine": "Sweet and Savory Pies",
    "payment": "Cash or Cards",
    "description": "We love pies – sweet and savory. We serve them up to the hungry people in Seattle in our fabulous food truck.",
    "schedule": {
      "monday": {},
      "tuesday": {},
      "wednesday": {
        "address": "333 Boren Ave N, Seattle, WA 98109, USA",
        "open": "11:00",
        "close": "14:00",
        "geometry": {
          "coordinates": [
            -122.3362079,
            47.6213267
          ],
          "type": "Point"
        }
      },
      "thursday": {
        "address": "Republican St & Boren Ave N, Seattle, WA 98109, USA",
        "open": "11:00",
        "close": "14:00",
        "geometry": {
          "coordinates": [
            -122.3358147,
            47.6232
          ],
          "type": "Point"
        }
      },
      "friday": {},
      "saturday": {},
      "sunday": {}
    },
    "contact": {
      "facebook": "https://www.facebook.com/pages/314-PIE/341309415945288",
      "twitter_link": "https://twitter.com/314PIESeattle",
      "twitter_screen_name": "314PIESeattle",
      "website": "http://www.314pieseattle.com/"
    }
  },
  {
    "name": "Beloved Mexico",
    "cuisine": "Mexican",
    "payment": "Cash or Cards",
    "description": "Authentic Mexican cuisine made w/ natural, organic ingredients.",
    "schedule": {
      "monday": {
        "address": "4722 Fauntleroy Way SW, Seattle, WA 98116, USA",
        "open": "10:00",
        "close": "20:00",
        "geometry": {
          "coordinates": [
            -122.3809729,
            47.56032630000001
          ],
          "type": "Point"
        }
      },
      "tuesday": {
        "address": "4722 Fauntleroy Way SW, Seattle, WA 98116, USA",
        "open": "10:00",
        "close": "20:00",
        "geometry": {
          "coordinates": [
            -122.3809729,
            47.56032630000001
          ],
          "type": "Point"
        }
      },
      "wednesday": {
        "address": "4722 Fauntleroy Way SW, Seattle, WA 98116, USA",
        "open": "10:00",
        "close": "20:00",
        "geometry": {
          "coordinates": [
            -122.3809729,
            47.56032630000001
          ],
          "type": "Point"
        }
      },
      "thursday": {
        "address": "4722 Fauntleroy Way SW, Seattle, WA 98116, USA",
        "open": "10:00",
        "close": "20:00",
        "geometry": {
          "coordinates": [
            -122.3809729,
            47.56032630000001
          ],
          "type": "Point"
        }
      },
      "friday": {
        "address": "4722 Fauntleroy Way SW, Seattle, WA 98116, USA",
        "open": "10:00",
        "close": "20:00",
        "geometry": {
          "coordinates": [
            -122.3809729,
            47.56032630000001
          ],
          "type": "Point"
        }
      },
      "saturday": {
        "address": "4722 Fauntleroy Way SW, Seattle, WA 98116, USA",
        "open": "10:00",
        "close": "20:00",
        "geometry": {
          "coordinates": [
            -122.3809729,
            47.56032630000001
          ],
          "type": "Point"
        }
      },
      "sunday": {
        "address": "4722 Fauntleroy Way SW, Seattle, WA 98116, USA",
        "open": "10:00",
        "close": "20:00",
        "geometry": {
          "coordinates": [
            -122.3809729,
            47.56032630000001
          ],
          "type": "Point"
        }
      }
    },
    "contact": {
      "facebook": "",
      "twitter_link": "",
      "website": "http://www.belovedmexico.com"
    }
  },
  {
    "name": "A Fire Inside Wood Fired Pizza",
    "cuisine": "Pizza",
    "payment": "Cash or Cards",
    "description": "Neapolitan Thin Crust Wood Fired Pizza",
    "schedule": {
      "monday": {
        "address": "5th Ave & Union St, Seattle, WA 98101, USA",
        "open": "10:30",
        "close": "14:00",
        "geometry": {
          "coordinates": [
            -122.334667,
            47.6096839
          ],
          "type": "Point"
        }
      },
      "tuesday": {
        "address": "83 S King St, Seattle, WA 98104, USA",
        "open": "10:30",
        "close": "14:00",
        "geometry": {
          "coordinates": [
            -122.3345507,
            47.5981458
          ],
          "type": "Point"
        }
      },
      "wednesday": {
        "address": "6th St & Park Ave, Bremerton, WA 98337, USA",
        "open": "10:30",
        "close": "14:00",
        "geometry": {
          "coordinates": [
            -122.6302286,
            47.5673165
          ],
          "type": "Point"
        }
      },
      "thursday": {
        "address": "83 S King St, Seattle, WA 98104, USA",
        "open": "10:30",
        "close": "18:00",
        "geometry": {
          "coordinates": [
            -122.3345507,
            47.5981458
          ],
          "type": "Point"
        }
      },
      "friday": {
        "address": "5th Ave & Union St, Seattle, WA 98101, USA",
        "open": "10:30",
        "close": "14:00",
        "geometry": {
          "coordinates": [
            -122.334667,
            47.6096839
          ],
          "type": "Point"
        }
      },
      "saturday": {},
      "sunday": {}
    },
    "contact": {
      "facebook": "https://www.facebook.com/AFireInsideWoodFiredPizza",
      "twitter_link": "",
      "website": ""
    }
  },
  {
    "name": "Caravan Crêpes",
    "cuisine": "French",
    "payment": "Cash or Cards",
    "description": "Sweet and Savory Crêpes",
    "schedule": {
      "monday": {},
      "tuesday": {
        "address": "Harrison St & Boren Ave N, Seattle, WA 98109, USA",
        "geometry": {
          "coordinates": [
            -122.3358359,
            47.6220217
          ],
          "type": "Point"
        }
      },
      "wednesday": {
        "address": "S Dearborn St & 5th Ave S, Seattle, WA 98134, USA",
        "open": "11:00",
        "close": "13:30",
        "geometry": {
          "coordinates": [
            -122.3276378,
            47.5958642
          ],
          "type": "Point"
        }
      },
      "thursday": {},
      "friday": {
        "address": "Westlake Ave N & Harrison St, Seattle, WA 98109, USA",
        "open": "11:00",
        "close": "14:00",
        "geometry": {
          "coordinates": [
            -122.3384426,
            47.6220467
          ],
          "type": "Point"
        }
      },
      "saturday": {
        "address": "Magnolia, Seattle, WA, USA",
        "open": "10:00",
        "close": "14:00",
        "geometry": {
          "coordinates": [
            -122.3996602,
            47.63963020000001
          ],
          "type": "Point"
        }
      },
      "sunday": {}
    },
    "contact": {
      "facebook": "",
      "twitter_link": "https://twitter.com/caravanseattle",
      "twitter_screen_name": "caravanseattle",
      "website": "http://www.caravanseattle.com"
    }
  },
  {
    "name": "Bomba Fusion",
    "cuisine": "Korean / Mexican Fusion",
    "payment": "Cash or Cards",
    "description": "",
    "schedule": {
      "monday": {
        "address": "1120 Harrison St, Seattle, WA 98109, USA",
        "open": "11:00",
        "close": "14:00",
        "geometry": {
          "coordinates": [
            -122.3352093,
            47.622025
          ],
          "type": "Point"
        }
      },
      "tuesday": {
        "address": "401 Pine St, Seattle, WA 98101, USA",
        "open": "11:00",
        "close": "14:00",
        "geometry" : {
          "coordinates" : [
            -122.3369905,
            47.6118256
          ],
          "type": "Point"
        }
      },
      "wednesday": {
        "address": "1000 4th Ave, Seattle, WA 98104, USA",
        "open": "11:00",
        "close": "14:00",
        "geometry": {
          "coordinates": [
            -122.3329838,
            47.6066004
          ],
          "type": "Point"
        }
      },
      "thursday": {
        "address": "401 Pine St, Seattle, WA 98101, USA",
        "open": "11:00",
        "close": "14:00",
        "geometry" : {
          "coordinates" : [
            -122.3369905,
            47.6118256
          ],
          "type": "Point"
        }
      },
      "friday": {
        "address": "S Main St & Occidental Ave S, Seattle, WA 98104, USA",
        "open": "11:00",
        "close": "14:00",
        "geometry": {
          "coordinates": [
            -122.3328885,
            47.6000475
          ],
          "type": "Point"
        }
      },
      "saturday": {},
      "sunday": {}
    },
    "contact": {
      "facebook": "https://www.facebook.com/bombafusion",
      "twitter_link": "https://twitter.com/bombafusion",
      "twitter_screen_name": "bombafusion",
      "website": "http://bombafusion.com/"
    }
  },
  {
    "name": "Chick’n Fix",
    "cuisine": "American / Filipino",
    "payment": "Cash or Cards",
    "description": "Serving up delicious chicken treats!",
    "schedule": {
      "monday": {},
      "tuesday": {
        "address": "Harrison St & Boren Ave N, Seattle, WA 98109, USA",
        "open": "11:00",
        "close": "14:00",
        "geometry": {
          "coordinates": [
            -122.3358359,
            47.6220217
          ],
          "type": "Point"
        }
      },
      "wednesday": {},
      "thursday": {
        "address": "Harrison St & Boren Ave N, Seattle, WA 98109, USA",
        "open": "11:00",
        "close": "14:00",
        "geometry": {
          "coordinates": [
            -122.3358359,
            47.6220217
          ],
          "type": "Point"
        }
      },
      "friday": {},
      "saturday": {},
      "sunday": {}
    },
    "contact": {
      "facebook": "https://www.facebook.com/chickn.fix",
      "twitter_link": "https://twitter.com/Chicknfix",
      "twitter_screen_name": "Chicknfix",
      "website": "http://www.chicknfix.com"
    }
  },
  {
    "name": "Campfire Chuck Wagon",
    "cuisine": "BBQ",
    "payment": "Cash or Cards",
    "description": "Slow and low BBQ – our happy meats are sourced locally whenever possible and smoked on average an hour and a half per pound over a real wood fire.",
    "schedule": {
      "monday": {},
      "tuesday": {},
      "wednesday": {},
      "thursday": {
        "address": "2300 7th Ave, Seattle, WA 98121, USA",
        "open": "11:00",
        "close": "don:00em",
        "geometry": {
          "coordinates": [
            -122.3415988,
            47.6177514
          ],
          "type": "Point"
        }
      },
      "friday": {
        "address": "2300 7th Ave, Seattle, WA 98121, USA",
        "open": "11:00",
        "close": "don:00em",
        "geometry": {
          "coordinates": [
            -122.3415988,
            47.6177514
          ],
          "type": "Point"
        }
      },
      "saturday": {},
      "sunday": {}
    },
    "contact": {
      "facebook": "https://www.facebook.com/campfireforyou",
      "twitter_link": "https://twitter.com/campfireforyou",
      "twitter_screen_name": "campfireforyou",
      "website": "http://campfireforyou.com/"
    }
  },
  {
    "name": "Bread and Circuses",
    "cuisine": "Gastropub Style",
    "payment": "Cash or Cards",
    "description": "Gastropub",
    "schedule": {
      "monday": {},
      "tuesday": {},
      "wednesday": {},
      "thursday": {
        "address": "106th Ave NE & NE 6th St, Bellevue, WA 98004, USA",
        "open": "11:00",
        "close": "14:00",
        "geometry": {
          "coordinates": [
            -122.1989522,
            47.6155745
          ],
          "type": "Point"
        }
      },
      "friday": {
        "address": "Bellefield Office Park Conference Center, 1150 114th Ave SE #100, Bellevue, WA 98004, USA",
        "open": "11:00",
        "close": "14:00",
        "geometry": {
          "coordinates": [
            -122.1870081,
            47.60039039999999
          ],
          "type": "Point"
        }
      },
      "saturday": {},
      "sunday": {}
    },
    "contact": {
      "facebook": "https://www.facebook.com/breadandcircusestruck",
      "twitter_link": "https://twitter.com/circustruck",
      "twitter_screen_name": "circustruck",
      "website": "http://www.eatbreadandcircuses.com/"
    }
  },
  {
    "name": "Cheese Wizards",
    "cuisine": "Sandwiches",
    "payment": "Cash, Cards, or Level Up",
    "description": "Grilled Cheese Magic",
    "schedule": {
      "monday": {
        "address": "Westlake Ave N & Republican St, Seattle, WA 98109, USA",
        "open": "11:00",
        "close": "14:00",
        "geometry": {
          "coordinates": [
            -122.3384361,
            47.6232102
          ],
          "type": "Point"
        }
      },
      "tuesday": {
        "address": "144 Western Ave W, Seattle, WA 98119, USA",
        "open": "11:00",
        "close": "14:00",
        "geometry": {
          "coordinates": [
            -122.358627,
            47.6195956
          ],
          "type": "Point"
        }
      },
      "wednesday": {
        "address": "106th Ave NE & NE 6th St, Bellevue, WA 98004, USA",
        "open": "11:00",
        "close": "14:00",
        "geometry": {
          "coordinates": [
            -122.1989522,
            47.6155745
          ],
          "type": "Point"
        }
      },
      "thursday": {
        "address": "Westlake Ave N & Republican St, Seattle, WA 98109, USA",
        "open": "11:00",
        "close": "14:00",
        "geometry": {
          "coordinates": [
            -122.3384361,
            47.6232102
          ],
          "type": "Point"
        }
      },
      "friday": {
        "address": "144 Western Ave W, Seattle, WA 98119, USA",
        "open": "11:00",
        "close": "14:00",
        "geometry": {
          "coordinates": [
            -122.358627,
            47.6195956
          ],
          "type": "Point"
        }
      },
      "saturday": {},
      "sunday": {}
    },
    "contact": {
      "facebook": "https://www.facebook.com/CheeseWizards",
      "twitter_link": "https://twitter.com/CheeseWizards",
      "twitter_screen_name": "CheeseWizards",
      "website": "http://wizardsofcheese.com"
    }
  },
  {
    "name": "Carmelitos",
    "cuisine": "Peruvian",
    "payment": "Cash or Cards",
    "description": "We are a Peruvian treat truck specializing in doughnuts, cakes, cookies, and ice creams. We also serve fresh juice as well as cold brew and pour over style coffee.",
    "schedule": {
      "monday": {},
      "tuesday": {},
      "wednesday": {},
      "thursday": {
        "address": "6300 Seaview Ave NW, Seattle, WA 98107, USA",
        "open": "10:00",
        "close": "18:00",
        "geometry": {
          "coordinates": [
            -122.4060338,
            47.67448410000001
          ],
          "type": "Point"
        }
      },
      "friday": {
        "address": "6300 Seaview Ave NW, Seattle, WA 98107, USA",
        "open": "10:00",
        "close": "18:00",
        "geometry": {
          "coordinates": [
            -122.4060338,
            47.67448410000001
          ],
          "type": "Point"
        }
      },
      "saturday": {
        "address": "6300 Seaview Ave NW, Seattle, WA 98107, USA",
        "open": "10:00",
        "close": "18:00",
        "geometry": {
          "coordinates": [
            -122.4060338,
            47.67448410000001
          ],
          "type": "Point"
        }
      },
      "sunday": {
        "address": "6300 Seaview Ave NW, Seattle, WA 98107, USA",
        "open": "10:00",
        "close": "18:00",
        "geometry": {
          "coordinates": [
            -122.4060338,
            47.67448410000001
          ],
          "type": "Point"
        }
      }
    },
    "contact": {
      "facebook": "https://www.facebook.com/carmelitosballard",
      "twitter_link": "",
      "website": ""
    }
  },
  {
    "name": "Big Dog’s",
    "cuisine": "Hot Dogs",
    "payment": "Cash or Cards",
    "description": "Biggest Weiner Around!",
    "schedule": {
      "monday": {
        "address": "University of Washington Bothell, 18115 Campus Way NE, Bothell, WA 98011, USA",
        "open": "11:00",
        "close": "14:00",
        "geometry": {
          "coordinates": [
            -122.1907054,
            47.7590975
          ],
          "type": "Point"
        }
      },
      "tuesday": {
        "address": "19940 Old Owen Rd, Monroe, WA 98272, USA",
        "open": "11:00",
        "close": "16:30",
        "geometry": {
          "coordinates": [
            -121.9638701,
            47.8580377
          ],
          "type": "Point"
        }
      },
      "wednesday": {},
      "thursday": {
        "address": "19940 Old Owen Rd, Monroe, WA 98272, USA",
        "open": "11:00",
        "close": "16:30",
        "geometry": {
          "coordinates": [
            -121.9638701,
            47.8580377
          ],
          "type": "Point"
        }
      },
      "friday": {
        "address": "19940 Old Owen Rd, Monroe, WA 98272, USA",
        "open": "11:00",
        "close": "16:30",
        "geometry": {
          "coordinates": [
            -121.9638701,
            47.8580377
          ],
          "type": "Point"
        }
      },
      "saturday": {
        "address": "19940 Old Owen Rd, Monroe, WA 98272, USA",
        "open": "11:00",
        "close": "16:30",
        "geometry": {
          "coordinates": [
            -121.9638701,
            47.8580377
          ],
          "type": "Point"
        }
      },
      "sunday": {
        "address": "19940 Old Owen Rd, Monroe, WA 98272, USA",
        "open": "11:00",
        "close": "16:30",
        "geometry": {
          "coordinates": [
            -121.9638701,
            47.8580377
          ],
          "type": "Point"
        }
      }
    },
    "contact": {
      "facebook": "https://www.facebook.com/BigDogsTacos",
      "twitter_link": "https://twitter.com/BigDogBuzz",
      "twitter_screen_name": "BigDogBuzz",
      "website": ""
    }
  },
  {
    "name": "Charlie’s",
    "cuisine": "Burgers / Cheesesteaks",
    "payment": "Cash or Cards",
    "description": "A fresh take on American diner fare",
    "schedule": {
      "monday": {
        "address": "531 Stewart St, Seattle, WA 98101, USA",
        "open": "11:00",
        "close": "14:00",
        "geometry": {
          "coordinates": [
            -122.3376094,
            47.61316679999999
          ],
          "type": "Point"
        }
      },
      "tuesday": {
        "address": "Microsoft W Campus Access Rd, Redmond, WA 98052, USA",
        "open": "11:00",
        "close": "14:00",
        "geometry": {
          "coordinates": [
            -122.1405316,
            47.66032999999999
          ],
          "type": "Point"
        }
      },
      "wednesday": {},
      "thursday": {
        "address": "Microsoft W Campus Access Rd, Redmond, WA 98052, USA",
        "open": "11:00",
        "close": "14:00",
        "geometry": {
          "coordinates": [
            -122.1405316,
            47.66032999999999
          ],
          "type": "Point"
        }
      },
      "friday": {
        "address": "Microsoft W Campus Access Rd, Redmond, WA 98052, USA",
        "open": "11:00",
        "close": "14:00",
        "geometry": {
          "coordinates": [
            -122.1405316,
            47.66032999999999
          ],
          "type": "Point"
        }
      },
      "saturday": {},
      "sunday": {}
    },
    "contact": {
      "facebook": "https://www.facebook.com/charliesbuns",
      "twitter_link": "https://twitter.com/CharliesBuns",
      "twitter_screen_name": "CharliesBuns",
      "website": "http://www.charliesbunsnstuff.com"
    }
  },
  {
    "name": "Big Boys Filipino Food Truck",
    "cuisine": "Filipino / American",
    "payment": "Cash or Cards",
    "description": "Bring people together using their sense of Filipino cuisine in a unique and flavorful way.",
    "schedule": {
      "monday": {},
      "tuesday": {
        "address": "101 Elliott Ave W, Seattle, WA 98119, USA",
        "open": "11:00",
        "close": "14:00",
        "geometry": {
          "coordinates": [
            -122.359573,
            47.619075
          ],
          "type": "Point"
        }
      },
      "wednesday": {},
      "thursday": {},
      "friday": {},
      "saturday": {},
      "sunday": {}
    },
    "contact": {
      "facebook": "https://www.facebook.com/bigboysfilipinofoodtruck",
      "twitter_link": "https://twitter.com/NateVibez",
      "twitter_screen_name": "NateVibez",
      "website": "http://www.bigboysfilipinofoodtruck.com/"
    }
  },
  {
    "name": "Bumbu Truck",
    "cuisine": "Indonesian",
    "payment": "Cash or Cards",
    "description": "Indonesian Street Food",
    "schedule": {
      "monday": {
        "address": "101 Elliott Ave W, Seattle, WA 98119, USA",
        "open": "11:00",
        "close": "14:00",
        "geometry": {
          "coordinates": [
            -122.359573,
            47.619075
          ],
          "type": "Point"
        }
      },
      "tuesday": {},
      "wednesday": {},
      "thursday": {
        "address": "3100 Northup Way, Bellevue, WA 98004, USA",
        "open": "11:00",
        "close": "14:00",
        "geometry": {
          "coordinates": [
            -122.191326,
            47.638197
          ],
          "type": "Point"
        }
      },
      "friday": {
        "address": "5000-5020 148th Ave SE, Redmond, WA 98052, USA",
        "open": "11:00",
        "close": "14:00",
        "geometry": {
          "coordinates": [
            -122.1422241,
            47.6525117
          ],
          "type": "Point"
        }
      },
      "saturday": {},
      "sunday": {}
    },
    "contact": {
      "facebook": "https://www.facebook.com/Bumbutruck",
      "twitter_link": "https://twitter.com/bumbutruck",
      "twitter_screen_name": "bumbutruck",
      "website": "http://www.bumbutruck.com"
    }
  },
  {
    "name": "Delicatessen Montanti",
    "cuisine": "Sandwiches",
    "payment": "Cash or Cards",
    "description": "East Coast deli sandwiches to die for!",
    "schedule": {
      "monday": {
        "address": "2600 Airport Way S, Seattle, WA 98134, USA",
        "open": "8:00",
        "close": "14:00",
        "geometry": {
          "coordinates": [
            -122.3209287,
            47.5798259
          ],
          "type": "Point"
        }
      },
      "tuesday": {
        "address": "Bellefield Office Park Conference Center, 1150 114th Ave SE, Bellevue, WA 98004, USA",
        "open": "8:00",
        "close": "14:00",
        "geometry": {
          "coordinates": [
            -122.1870081,
            47.60039039999999
          ],
          "type": "Point"
        }
      },
      "wednesday": {
        "address": "2600 Airport Way S, Seattle, WA 98134, USA",
        "open": "8:00",
        "close": "14:00",
        "geometry": {
          "coordinates": [
            -122.3209287,
            47.5798259
          ],
          "type": "Point"
        }
      },
      "thursday": {
        "address": "6100 4th Ave S, Seattle, WA 98108, USA",
        "open": "8:00",
        "close": "14:00",
        "geometry": {
          "coordinates": [
            -122.3288835,
            47.54714329999999
          ],
          "type": "Point"
        }
      },
      "friday": {
        "address": "2600 Airport Way S, Seattle, WA 98134, USA",
        "open": "8:00",
        "close": "14:00",
        "geometry": {
          "coordinates": [
            -122.3209287,
            47.5798259
          ],
          "type": "Point"
        }
      },
      "saturday": {},
      "sunday": {}
    },
    "contact": {
      "facebook": "https://www.facebook.com/pages/Delicatessen-Montanti/823352311016462",
      "twitter_link": "",
      "website": "http://montanti.wix.com/delicatessenmontanti"
    }
  },
  {
    "name": "Crisp Crêperie",
    "cuisine": "French",
    "payment": "Cash or Cards",
    "description": "Locally sourced, in-season, top-shelf ingredients in exquisitely crafted crêpes",
    "schedule": {
      "monday": {},
      "tuesday": {},
      "wednesday": {},
      "thursday": {
        "address": "2401 Utah Ave S, Seattle, WA 98134, USA",
        "open": "11:00",
        "close": "14:00",
        "geometry": {
          "coordinates": [
            -122.3358992,
            47.5810044
          ],
          "type": "Point"
        }
      },
      "friday": {},
      "saturday": {},
      "sunday": {}
    },
    "contact": {
      "facebook": "https://www.facebook.com/CrispSeattle",
      "twitter_link": "https://twitter.com/CrispSeattle",
      "twitter_screen_name": "CrispSeattle",
      "website": "http://www.crispseattle.com"
    }
  },
  {
    "name": "Fruit Chatter Box",
    "cuisine": "Sweets",
    "payment": "Cash or Cards",
    "description": "Fruit Chatter Box provides fresh, seasonal fresh fruit in cups or on a stick at local festivals and street fairs.",
    "schedule": {
      "monday": {},
      "tuesday": {},
      "wednesday": {},
      "thursday": {},
      "friday": {},
      "saturday": {},
      "sunday": {
        "address": "3401 Evanston Ave N, Seattle, WA 98103, USA",
        "open": "10:00",
        "close": "15:00",
        "geometry": {
          "coordinates": [
            -122.3516227,
            47.65011399999999
          ],
          "type": "Point"
        }
      }
    },
    "contact": {
      "facebook": "https://www.facebook.com/fruitchatterbox",
      "twitter_link": "https://twitter.com/fruitchatterbox",
      "twitter_screen_name": "fruitchatterbox",
      "website": "http://fruitchatterbox.squarespace.com/"
    }
  },
  {
    "name": "Curb Jumper Street Eats",
    "cuisine": "Sandwiches / Burgers",
    "payment": "Cash or Cards",
    "description": "Gourmet Sliders and Specialty Sandwiches",
    "schedule": {
      "monday": {
        "address": "Microsoft W Campus Access Rd, Redmond, WA 98052, USA",
        "open": "11:00",
        "close": "14:00",
        "geometry": {
          "coordinates": [
            -122.1405316,
            47.66032999999999
          ],
          "type": "Point"
        }
      },
      "tuesday": {},
      "wednesday": {
        "address": "Microsoft W Campus Access Rd, Redmond, WA 98052, USA",
        "open": "11:00",
        "close": "14:00",
        "geometry": {
          "coordinates": [
            -122.1405316,
            47.66032999999999
          ],
          "type": "Point"
        }
      },
      "thursday": {},
      "friday": {
        "address": "Microsoft W Campus Access Rd, Redmond, WA 98052, USA",
        "open": "11:00",
        "close": "14:00",
        "geometry": {
          "coordinates": [
            -122.1405316,
            47.66032999999999
          ],
          "type": "Point"
        }
      },
      "saturday": {},
      "sunday": {}
    },
    "contact": {
      "facebook": "https://www.facebook.com/CurbJumperStreetEats",
      "twitter_link": "https://twitter.com/CurbJumper206",
      "twitter_screen_name": "CurbJumper206",
      "website": "http://www.curbjumperstreeteats.com"
    }
  },
  {
    "name": "Flair Taco",
    "cuisine": "Mexican",
    "payment": "Cash Only",
    "description": "Regular taco truck in the Fremont neighborhood – open 7 days a week and late night.",
    "schedule": {
      "monday": {
        "address": "166 N 35th St, Seattle, WA 98103, USA",
        "open": "11:00",
        "close": "22:00",
        "geometry": {
          "coordinates": [
            -122.3553652,
            47.6516285
          ],
          "type": "Point"
        }
      },
      "tuesday": {
        "address": "166 N 35th St, Seattle, WA 98103, USA",
        "open": "11:00",
        "close": "22:00",
        "geometry": {
          "coordinates": [
            -122.3553652,
            47.6516285
          ],
          "type": "Point"
        }
      },
      "wednesday": {
        "address": "166 N 35th St, Seattle, WA 98103, USA",
        "open": "11:00",
        "close": "22:00",
        "geometry": {
          "coordinates": [
            -122.3553652,
            47.6516285
          ],
          "type": "Point"
        }
      },
      "thursday": {
        "address": "166 N 35th St, Seattle, WA 98103, USA",
        "open": "11:00",
        "close": "23:00",
        "geometry": {
          "coordinates": [
            -122.3553652,
            47.6516285
          ],
          "type": "Point"
        }
      },
      "friday": {
        "address": "166 N 35th St, Seattle, WA 98103, USA",
        "open": "11:00",
        "close": "4:00",
        "geometry": {
          "coordinates": [
            -122.3553652,
            47.6516285
          ],
          "type": "Point"
        }
      },
      "saturday": {
        "address": "166 N 35th St, Seattle, WA 98103, USA",
        "open": "11:00",
        "close": "4:00",
        "geometry": {
          "coordinates": [
            -122.3553652,
            47.6516285
          ],
          "type": "Point"
        }
      },
      "sunday": {}
    },
    "contact": {
      "facebook": "https://www.facebook.com/pages/Flair-Taco/197832600252403",
      "twitter_link": "",
      "website": ""
    }
  },
  {
    "name": "Budha Bear Bagels",
    "cuisine": "Sandwiches",
    "payment": "Cash or cards",
    "description": "Gourmet Bagel Sandwiches",
    "schedule": {
      "monday": {
        "address": "1735 Jefferson Ave, Tacoma, WA 98402, USA",
        "open": "11:00",
        "close": "14:00",
        "geometry": {
          "coordinates": [
            -122.4382339,
            47.2458914
          ],
          "type": "Point"
        }
      },
      "tuesday": {
        "address": "1735 Jefferson Ave, Tacoma, WA 98402, USA",
        "open": "11:00",
        "close": "14:00",
        "geometry": {
          "coordinates": [
            -122.4382339,
            47.2458914
          ],
          "type": "Point"
        }
      },
      "wednesday": {
        "address": "1735 Jefferson Ave, Tacoma, WA 98402, USA",
        "open": "11:00",
        "close": "14:00",
        "geometry": {
          "coordinates": [
            -122.4382339,
            47.2458914
          ],
          "type": "Point"
        }
      },
      "thursday": {},
      "friday": {
        "address": "107 W Stewart Ave, Puyallup, WA 98371, USA",
        "open": "11:00",
        "close": "14:00",
        "geometry": {
          "coordinates": [
            -122.294234,
            47.193229
          ],
          "type": "Point"
        }
      },
      "saturday": {},
      "sunday": {}
    },
    "contact": {
      "facebook": "https://www.facebook.com/BudhaBearBagelsCafe",
      "twitter_link": "https://twitter.com/BudhaBearBagels",
      "twitter_screen_name": "BudhaBearBagels",
      "website": ""
    }
  },
  {
    "name": "Hallava Falafel",
    "cuisine": "Mediterranean",
    "payment": "Cash or Cards",
    "description": "Falafel and shwarma sandwiches",
    "schedule": {
      "monday": {
        "address": "5825 Airport Way S, Seattle, WA 98108, USA",
        "open": "11:00",
        "close": "15:00",
        "geometry": {
          "coordinates": [
            -122.318022,
            47.55016639999999
          ],
          "type": "Point"
        }
      },
      "tuesday": {
        "address": "5825 Airport Way S, Seattle, WA 98108, USA",
        "open": "11:00",
        "close": "15:00",
        "geometry": {
          "coordinates": [
            -122.318022,
            47.55016639999999
          ],
          "type": "Point"
        }
      },
      "wednesday": {
        "address": "2401 Utah Ave S, Seattle, WA 98134, USA",
        "open": "11:00",
        "close": "14:00",
        "geometry": {
          "coordinates": [
            -122.3358992,
            47.5810044
          ],
          "type": "Point"
        }
      },
      "thursday": {
        "address": "5825 Airport Way S, Seattle, WA 98108, USA",
        "open": "11:00",
        "close": "15:00",
        "geometry": {
          "coordinates": [
            -122.318022,
            47.55016639999999
          ],
          "type": "Point"
        }
      },
      "friday": {
        "address": "5825 Airport Way S, Seattle, WA 98108, USA",
        "open": "11:00",
        "close": "15:00",
        "geometry": {
          "coordinates": [
            -122.318022,
            47.55016639999999
          ],
          "type": "Point"
        }
      },
      "saturday": {
        "address": "5825 Airport Way S, Seattle, WA 98108, USA",
        "open": "11:00",
        "close": "15:00",
        "geometry": {
          "coordinates": [
            -122.318022,
            47.55016639999999
          ],
          "type": "Point"
        }
      },
      "sunday": {}
    },
    "contact": {
      "facebook": "https://www.facebook.com/pages/Hallava-Falafel/143082672399060",
      "twitter_link": "https://twitter.com/seattle_falafel",
      "twitter_screen_name": "seattle_falafel",
      "website": "http://www.hallavafalafel.com"
    }
  },
  {
    "name": "El Sabroso de Seattle",
    "cuisine": "Mexican",
    "payment": "Cash or Cards",
    "description": "Specializing in Gourmet Tortas, Tacos, Tamales (on green bannana leaf) and  Quesadillas.",
    "schedule": {
      "monday": {
        "address": "2524 16th Ave S, Seattle, WA 98144, USA",
        "open": "9:00",
        "close": "18:00",
        "geometry": {
          "coordinates": [
            -122.3113845,
            47.5803647
          ],
          "type": "Point"
        }
      },
      "tuesday": {
        "address": "2524 16th Ave S, Seattle, WA 98144, USA",
        "open": "9:00",
        "close": "18:00",
        "geometry": {
          "coordinates": [
            -122.3113845,
            47.5803647
          ],
          "type": "Point"
        }
      },
      "wednesday": {
        "address": "2524 16th Ave S, Seattle, WA 98144, USA",
        "open": "9:00",
        "close": "18:00",
        "geometry": {
          "coordinates": [
            -122.3113845,
            47.5803647
          ],
          "type": "Point"
        }
      },
      "thursday": {
        "address": "2524 16th Ave S, Seattle, WA 98144, USA",
        "open": "9:00",
        "close": "18:00",
        "geometry": {
          "coordinates": [
            -122.3113845,
            47.5803647
          ],
          "type": "Point"
        }
      },
      "friday": {
        "address": "2524 16th Ave S, Seattle, WA 98144, USA",
        "open": "9:00",
        "close": "18:00",
        "geometry": {
          "coordinates": [
            -122.3113845,
            47.5803647
          ],
          "type": "Point"
        }
      },
      "saturday": {},
      "sunday": {}
    },
    "contact": {
      "facebook": "https://www.facebook.com/elsabrosobeaconhill",
      "twitter_link": "",
      "website": "http://www.elsabrosodeseattle.com"
    }
  },
  {
    "name": "BUNS",
    "cuisine": "Burgers",
    "payment": "Cash or Cards",
    "description": "Gourmet burgers made from organic ingredients.",
    "schedule": {
      "monday": {},
      "tuesday": {},
      "wednesday": {
        "address": "201 Terry Ave N, Seattle, WA 98109, USA",
        "open": "11:00",
        "close": "14:00",
        "geometry": {
          "coordinates": [
            -122.3374314,
            47.6198737
          ],
          "type": "Point"
        }
      },
      "thursday": {},
      "friday": {
        "address": "2nd Ave & Union St, Seattle, WA 98101, USA",
        "open": "11:00",
        "close": "14:00",
        "geometry": {
          "coordinates": [
            -122.337997,
            47.6082899
          ],
          "type": "Point"
        }
      },
      "saturday": {},
      "sunday": {}
    },
    "contact": {
      "facebook": "https://www.facebook.com/bunsburger",
      "twitter_link": "https://twitter.com/BunsOnWheels",
      "twitter_screen_name": "BunsOnWheels",
      "website": "http://www.bunsonwheels.com"
    }
  },
  {
    "name": "HamHock Jones Soul Shack",
    "cuisine": "BBQ",
    "payment": "Cash or Cards",
    "description": "Specializing in Southern Soul Food & BBQ",
    "schedule": {
      "monday": {
        "address": "9202 Washington Blvd SW, Tacoma, WA 98498, USA",
        "open": "11:00",
        "close": "19:00",
        "geometry": {
          "coordinates": [
            -122.5599875,
            47.148398
          ],
          "type": "Point"
        }
      },
      "tuesday": {
        "address": "9202 Washington Blvd SW, Tacoma, WA 98498, USA",
        "open": "11:00",
        "close": "19:00",
        "geometry": {
          "coordinates": [
            -122.5599875,
            47.148398
          ],
          "type": "Point"
        }
      },
      "wednesday": {
        "address": "9202 Washington Blvd SW, Tacoma, WA 98498, USA",
        "open": "11:00",
        "close": "19:00",
        "geometry": {
          "coordinates": [
            -122.5599875,
            47.148398
          ],
          "type": "Point"
        }
      },
      "thursday": {
        "address": "9202 Washington Blvd SW, Tacoma, WA 98498, USA",
        "open": "11:00",
        "close": "19:00",
        "geometry": {
          "coordinates": [
            -122.5599875,
            47.148398
          ],
          "type": "Point"
        }
      },
      "friday": {
        "address": "9202 Washington Blvd SW, Tacoma, WA 98498, USA",
        "open": "11:00",
        "close": "19:00",
        "geometry": {
          "coordinates": [
            -122.5599875,
            47.148398
          ],
          "type": "Point"
        }
      },
      "saturday": {
        "address": "9202 Washington Blvd SW, Tacoma, WA 98498, USA",
        "open": "12:00",
        "close": "19:00",
        "geometry": {
          "coordinates": [
            -122.5599875,
            47.148398
          ],
          "type": "Point"
        }
      },
      "sunday": {}
    },
    "contact": {
      "facebook": "https://www.facebook.com/hamhockjonesbbq",
      "twitter_link": "",
      "website": ""
    }
  },
  {
    "name": "El Cabrito",
    "cuisine": "Mexican",
    "payment": "Cash or Cards",
    "description": "Traditional Oaxacan Mexican",
    "schedule": {
      "monday": {
        "address": "828 Rainier Ave S, Seattle, WA 98144, USA",
        "open": "11:00",
        "close": "20:00",
        "geometry": {
          "coordinates": [
            -122.310442,
            47.594987
          ],
          "type": "Point"
        }
      },
      "tuesday": {
        "address": "828 Rainier Ave S, Seattle, WA 98144, USA",
        "open": "11:00",
        "close": "20:00",
        "geometry": {
          "coordinates": [
            -122.310442,
            47.594987
          ],
          "type": "Point"
        }
      },
      "wednesday": {
        "address": "828 Rainier Ave S, Seattle, WA 98144, USA",
        "open": "11:00",
        "close": "20:00",
        "geometry": {
          "coordinates": [
            -122.310442,
            47.594987
          ],
          "type": "Point"
        }
      },
      "thursday": {
        "address": "828 Rainier Ave S, Seattle, WA 98144, USA",
        "open": "11:00",
        "close": "20:00",
        "geometry": {
          "coordinates": [
            -122.310442,
            47.594987
          ],
          "type": "Point"
        }
      },
      "friday": {
        "address": "828 Rainier Ave S, Seattle, WA 98144, USA",
        "open": "11:00",
        "close": "20:00",
        "geometry": {
          "coordinates": [
            -122.310442,
            47.594987
          ],
          "type": "Point"
        }
      },
      "saturday": {
        "address": "828 Rainier Ave S, Seattle, WA 98144, USA",
        "open": "11:00",
        "close": "20:00",
        "geometry": {
          "coordinates": [
            -122.310442,
            47.594987
          ],
          "type": "Point"
        }
      },
      "sunday": {}
    },
    "contact": {
      "facebook": "",
      "twitter_link": "",
      "website": ""
    }
  },
  {
    "name": "Ezell’s Express",
    "cuisine": "Southern",
    "payment": "Cash or Cards",
    "description": "Fresh, Good and Fast! Famous fried chicken",
    "schedule": {
      "monday": {},
      "tuesday": {
        "address": "Microsoft W Campus Access Rd, Redmond, WA 98052, USA",
        "open": "11:00",
        "close": "15:00",
        "geometry": {
          "coordinates": [
            -122.1405316,
            47.66032999999999
          ],
          "type": "Point"
        }
      },
      "wednesday": {
        "address": "500 Yale Ave N, Seattle, WA 98109, USA",
        "open": "11:00",
        "close": "14:00",
        "geometry": {
          "coordinates": [
            -122.3301121,
            47.6233544
          ],
          "type": "Point"
        }
      },
      "thursday": {
        "address": "2401 Utah Ave S, Seattle, WA 98134, USA",
        "open": "11:00",
        "close": "14:00",
        "geometry": {
          "coordinates": [
            -122.3358992,
            47.5810044
          ],
          "type": "Point"
        }
      },
      "friday": {
        "address": "101 Elliott Ave W, Seattle, WA 98119, USA",
        "open": "11:00",
        "close": "14:00",
        "geometry": {
          "coordinates": [
            -122.359573,
            47.619075
          ],
          "type": "Point"
        }
      },
      "saturday": {},
      "sunday": {}
    },
    "contact": {
      "facebook": "https://www.facebook.com/pages/Ezells-Express/119007364918927",
      "twitter_link": "https://twitter.com/EzellsExpress1",
      "twitter_screen_name": "EzellsExpress1",
      "website": ""
    }
  },
  {
    "name": "El Camion",
    "cuisine": "Mexican",
    "payment": "Cash Only",
    "description": "Bringing you the finest and most authentic of Mexican cuisine",
    "schedule": {
      "monday": {
        "address": "11728 Aurora Ave N, Seattle, WA 98133, USA",
        "open": "8:30",
        "close": "21:00",
        "geometry": {
          "coordinates": [
            -122.3444236,
            47.7150371
          ],
          "type": "Point"
        }
      },
      "tuesday": {
        "address": "11728 Aurora Ave N, Seattle, WA 98133, USA",
        "open": "8:30",
        "close": "21:00",
        "geometry": {
          "coordinates": [
            -122.3444236,
            47.7150371
          ],
          "type": "Point"
        }
      },
      "wednesday": {
        "address": "11728 Aurora Ave N, Seattle, WA 98133, USA",
        "open": "8:30",
        "close": "21:00",
        "geometry": {
          "coordinates": [
            -122.3444236,
            47.7150371
          ],
          "type": "Point"
        }
      },
      "thursday": {
        "address": "11728 Aurora Ave N, Seattle, WA 98133, USA",
        "open": "8:30",
        "close": "21:00",
        "geometry": {
          "coordinates": [
            -122.3444236,
            47.7150371
          ],
          "type": "Point"
        }
      },
      "friday": {
        "address": "11728 Aurora Ave N, Seattle, WA 98133, USA",
        "open": "8:30",
        "close": "21:00",
        "geometry": {
          "coordinates": [
            -122.3444236,
            47.7150371
          ],
          "type": "Point"
        }
      },
      "saturday": {
        "address": "11728 Aurora Ave N, Seattle, WA 98133, USA",
        "open": "8:30",
        "close": "21:00",
        "geometry": {
          "coordinates": [
            -122.3444236,
            47.7150371
          ],
          "type": "Point"
        }
      },
      "sunday": {
        "address": "11728 Aurora Ave N, Seattle, WA 98133, USA",
        "open": "8:30",
        "close": "21:00",
        "geometry": {
          "coordinates": [
            -122.3444236,
            47.7150371
          ],
          "type": "Point"
        }
      }
    },
    "contact": {
      "facebook": "",
      "twitter_link": "https://twitter.com/elcamionseattle",
      "twitter_screen_name": "elcamionseattle",
      "website": "http://www.elcamionseattle.com"
    }
  },
  {
    "name": "Don Lucho’s",
    "cuisine": "Peruvian",
    "payment": "Cash or Cards",
    "description": "Latin sandwiches",
    "schedule": {
      "monday": {},
      "tuesday": {},
      "wednesday": {},
      "thursday": {
        "address": "Queen Anne, Seattle, WA, USA",
        "open": "12:00",
        "close": "16:00",
        "geometry": {
          "coordinates": [
            -122.3568641,
            47.6323268
          ],
          "type": "Point"
        }
      },
      "friday": {
        "address": "1550 NW 49th St, Seattle, WA 98107, USA",
        "open": "18:00",
        "close": "21:00",
        "geometry": {
          "coordinates": [
            -122.3780509,
            47.664623
          ],
          "type": "Point"
        }
      },
      "saturday": {
        "address": "Bellevue, WA, USA",
        "open": "7:00",
        "close": "12:00",
        "geometry": {
          "coordinates": [
            -122.2006786,
            47.610377
          ],
          "type": "Point"
        }
      },
      "sunday": {}
    },
    "contact": {
      "facebook": "https://www.facebook.com/donluchos206",
      "twitter_link": "https://www.twitter.com/donluchos",
      "twitter_screen_name": "donluchos",
      "website": "http://www.donluchosinseattle.com"
    }
  },
  {
    "name": "Chopstix",
    "cuisine": "Asian Fusion",
    "payment": "Cash or Cards",
    "description": "Asian Fusion, like the truck’s name Chopstix. Our specialty is a little twist of Asian cuisine with western cuisine",
    "schedule": {
      "monday": {},
      "tuesday": {
        "address": "Pier 54, Seattle, WA 98104, USA",
        "open": "11:00",
        "close": "14:00",
        "geometry": {
          "coordinates": [
            -122.3392243,
            47.6042926
          ],
          "type": "Point"
        }
      },
      "wednesday": {
        "address": "Republican St & Terry Ave N, Seattle, WA 98109, USA",
        "open": "11:00",
        "close": "14:00",
        "geometry": {
          "coordinates": [
            -122.3371371,
            47.6232018
          ],
          "type": "Point"
        }
      },
      "thursday": {
        "address": "1st Avenue South, Washington, USA",
        "open": "11:00",
        "close": "14:00",
        "geometry": {
          "coordinates": [
            -122.3336476,
            47.5049191
          ],
          "type": "Point"
        }
      },
      "friday": {},
      "saturday": {},
      "sunday": {}
    },
    "contact": {
      "facebook": "https://www.facebook.com/chopstixmobile",
      "twitter_link": "https://twitter.com/ChopstixMobile",
      "twitter_screen_name": "ChopstixMobile",
      "website": "http://www.chopstixmobile.com"
    }
  },
  {
    "name": "Djung on Wheels",
    "cuisine": "Thai",
    "payment": "Cash or Cards",
    "description": "Family-owned business offering great Thai food",
    "schedule": {
      "monday": {
        "address": "Harrison St & Boren Ave N, Seattle, WA 98109, USA",
        "open": "11:00",
        "close": "14:00",
        "geometry": {
          "coordinates": [
            -122.3358359,
            47.6220217
          ],
          "type": "Point"
        }
      },
      "tuesday": {
        "address": "9th Ave & Virginia St, Seattle, WA 98121, USA",
        "open": "11:00",
        "close": "14:00",
        "geometry": {
          "coordinates": [
            -122.3357254,
            47.6163959
          ],
          "type": "Point"
        }
      },
      "wednesday": {
        "address": "Harrison St & Boren Ave N, Seattle, WA 98109, USA",
        "open": "11:00",
        "close": "14:00",
        "geometry": {
          "coordinates": [
            -122.3358359,
            47.6220217
          ],
          "type": "Point"
        }
      },
      "thursday": {
        "address": "9th Ave & Virginia St, Seattle, WA 98121, USA",
        "open": "11:00",
        "close": "14:00",
        "geometry": {
          "coordinates": [
            -122.3357254,
            47.6163959
          ],
          "type": "Point"
        }
      },
      "friday": {
        "address": "Harrison St & Boren Ave N, Seattle, WA 98109, USA",
        "open": "11:00",
        "close": "14:00",
        "geometry": {
          "coordinates": [
            -122.3358359,
            47.6220217
          ],
          "type": "Point"
        }
      },
      "saturday": {},
      "sunday": {}
    },
    "contact": {
      "facebook": "https://www.facebook.com/djungfood",
      "twitter_link": "",
      "website": ""
    }
  },
  {
    "name": "Das Brat Wagen",
    "cuisine": "Bratwurst",
    "payment": "Cash or Cards",
    "description": "German-Style mobile food cart",
    "schedule": {
      "monday": {},
      "tuesday": {},
      "wednesday": {},
      "thursday": {
        "address": "1550 NW 49th St, Seattle, WA 98107, USA",
        "open": "16:00",
        "close": "21:00",
        "geometry": {
          "coordinates": [
            -122.3780509,
            47.664623
          ],
          "type": "Point"
        }
      },
      "friday": {},
      "saturday": {
        "address": "503 6th St S, Kirkland, WA 98033, USA",
        "open": "12:00",
        "close": "20:00",
        "geometry": {
          "coordinates": [
            -122.1967387,
            47.6717705
          ],
          "type": "Point"
        }
      },
      "sunday": {
        "address": "1550 NW 49th St, Seattle, WA 98107, USA",
        "open": "14:00",
        "close": "19:00",
        "geometry": {
          "coordinates": [
            -122.3780509,
            47.664623
          ],
          "type": "Point"
        }
      }
    },
    "contact": {
      "facebook": "https://www.facebook.com/dasbrat.wagen",
      "twitter_link": "https://twitter.com/dasbrat",
      "twitter_screen_name": "dasbrat",
      "website": "http://www.dasbratwagen.com/"
    }
  },
  {
    "name": "Kurbside Kitchen",
    "cuisine": "Waffles",
    "payment": "Cash or Cards",
    "description": "Sweet and savory waffles",
    "schedule": {
      "monday": {
        "address": "Thomas St, Seattle, WA 98109, USA",
        "open": "11:00",
        "close": "18:00",
        "geometry": {
          "coordinates": [
            -122.3430313,
            47.6208963
          ],
          "type": "Point"
        }
      },
      "tuesday": {
        "address": "Thomas St, Seattle, WA 98109, USA",
        "open": "11:00",
        "close": "18:00",
        "geometry": {
          "coordinates": [
            -122.3430313,
            47.6208963
          ],
          "type": "Point"
        }
      },
      "wednesday": {
        "address": "Thomas St, Seattle, WA 98109, USA",
        "open": "11:00",
        "close": "18:00",
        "geometry": {
          "coordinates": [
            -122.3430313,
            47.6208963
          ],
          "type": "Point"
        }
      },
      "thursday": {
        "address": "Thomas St, Seattle, WA 98109, USA",
        "open": "11:00",
        "close": "18:00",
        "geometry": {
          "coordinates": [
            -122.3430313,
            47.6208963
          ],
          "type": "Point"
        }
      },
      "friday": {
        "address": "Thomas St, Seattle, WA 98109, USA",
        "open": "11:00",
        "close": "18:00",
        "geometry": {
          "coordinates": [
            -122.3430313,
            47.6208963
          ],
          "type": "Point"
        }
      },
      "saturday": {
        "address": "Thomas St, Seattle, WA 98109, USA",
        "open": "11:00",
        "close": "18:00",
        "geometry": {
          "coordinates": [
            -122.3430313,
            47.6208963
          ],
          "type": "Point"
        }
      },
      "sunday": {
        "address": "Thomas St, Seattle, WA 98109, USA",
        "open": "11:00",
        "close": "18:00",
        "geometry": {
          "coordinates": [
            -122.3430313,
            47.6208963
          ],
          "type": "Point"
        }
      }
    },
    "contact": {
      "facebook": "",
      "twitter_link": "https://twitter.com/kurbkitchen",
      "twitter_screen_name": "kurbkitchen",
      "website": "http://www.yelp.com/biz/kurbside-kitchen-seattle"
    }
  },
  {
    "name": "Mr. Gyros",
    "cuisine": "Mediterranean",
    "payment": "Cash or Cards",
    "description": "Gyros, falafel,  Greek salad, humumus just to name a few",
    "schedule": {
      "monday": {
        "address": "1 Microsoft Way, Redmond, WA 98052, USA",
        "open": "11:00",
        "close": "14:00",
        "geometry": {
          "coordinates": [
            -122.128381,
            47.6395831
          ],
          "type": "Point"
        }
      },
      "tuesday": {
        "address": "1 Microsoft Way, Redmond, WA 98052, USA",
        "open": "11:00",
        "close": "14:00",
        "geometry": {
          "coordinates": [
            -122.128381,
            47.6395831
          ],
          "type": "Point"
        }
      },
      "wednesday": {
        "address": "1 Microsoft Way, Redmond, WA 98052, USA",
        "open": "11:00",
        "close": "14:00",
        "geometry": {
          "coordinates": [
            -122.128381,
            47.6395831
          ],
          "type": "Point"
        }
      },
      "thursday": {
        "address": "1 Microsoft Way, Redmond, WA 98052, USA",
        "open": "11:00",
        "close": "14:00",
        "geometry": {
          "coordinates": [
            -122.128381,
            47.6395831
          ],
          "type": "Point"
        }
      },
      "friday": {
        "address": "1 Microsoft Way, Redmond, WA 98052, USA",
        "open": "11:00",
        "close": "14:00",
        "geometry": {
          "coordinates": [
            -122.128381,
            47.6395831
          ],
          "type": "Point"
        }
      },
      "saturday": {},
      "sunday": {}
    },
    "contact": {
      "facebook": "https://www.facebook.com/pages/Mr-Gyros/338624269488239",
      "twitter_link": "http://www.twitter.com/Mrgyroseattle",
      "twitter_screen_name": "Mrgyroseattle",
      "website": "http://www.mrgyroseattle.com"
    }
  },
  {
    "name": "Luchador Taco Co",
    "cuisine": "Mexican",
    "payment": "Cash or Cards",
    "description": "Vegan tacos, burritos, tortas and tamales",
    "schedule": {
      "monday": {
        "address": "S Main St & Occidental Ave S, Seattle, WA 98104, USA",
        "open": "11:00",
        "close": "14:00",
        "geometry": {
          "coordinates": [
            -122.3328885,
            47.6000475
          ],
          "type": "Point"
        }
      },
      "tuesday": {},
      "wednesday": {
        "address": "6100 4th Ave S, Seattle, WA 98108, USA",
        "open": "11:30",
        "close": "14:00",
        "geometry": {
          "coordinates": [
            -122.3288835,
            47.54714329999999
          ],
          "type": "Point"
        }
      },
      "thursday": {
        "address": "1514 NW Leary Way, Seattle, WA 98107, USA",
        "open": "18:30",
        "close": "22:00",
        "geometry": {
          "coordinates": [
            -122.3770908,
            47.6638963
          ],
          "type": "Point"
        }
      },
      "friday": {},
      "saturday": {},
      "sunday": {
        "address": "826 NW 49th St, Seattle, WA 98107, USA",
        "open": "13:00",
        "close": "18:00",
        "geometry": {
          "coordinates": [
            -122.367549,
            47.6645826
          ],
          "type": "Point"
        }
      }
    },
    "contact": {
      "facebook": "https://www.facebook.com/luchadortaco",
      "twitter_link": "https://twitter.com/luchadortaco",
      "twitter_screen_name": "luchadortaco",
      "website": ""
    }
  },
  {
    "name": "Goreeng",
    "cuisine": "Indonesian / Thai",
    "payment": "Cash or Cards",
    "description": "",
    "schedule": {
      "monday": {
        "address": "35th Ave NE & NE 86th St, Seattle, WA 98115, USA",
        "open": "16:00",
        "close": "21:00",
        "geometry": {
          "coordinates": [
            -122.2907009,
            47.6909327
          ],
          "type": "Point"
        }
      },
      "tuesday": {
        "address": "35th Ave NE & NE 86th St, Seattle, WA 98115, USA",
        "open": "16:00",
        "close": "21:00",
        "geometry": {
          "coordinates": [
            -122.2907009,
            47.6909327
          ],
          "type": "Point"
        }
      },
      "wednesday": {
        "address": "35th Ave NE & NE 86th St, Seattle, WA 98115, USA",
        "open": "16:00",
        "close": "21:00",
        "geometry": {
          "coordinates": [
            -122.2907009,
            47.6909327
          ],
          "type": "Point"
        }
      },
      "thursday": {
        "address": "2401 Utah Ave S, Seattle, WA 98134, USA",
        "open": "11:00",
        "close": "14:00",
        "geometry": {
          "coordinates": [
            -122.3358992,
            47.5810044
          ],
          "type": "Point"
        }
      },
      "friday": {
        "address": "35th Ave NE & NE 86th St, Seattle, WA 98115, USA",
        "open": "16:00",
        "close": "21:00",
        "geometry": {
          "coordinates": [
            -122.2907009,
            47.6909327
          ],
          "type": "Point"
        }
      },
      "saturday": {
        "address": "10515 35th Ave NE, Seattle, WA 98125, USA",
        "geometry": {
          "coordinates": [
            -122.2908547,
            47.70496319999999
          ],
          "type": "Point"
        }
      },
      "sunday": {}
    },
    "contact": {
      "facebook": "https://www.facebook.com/goreengfood",
      "twitter_link": "https://twitter.com/goreengfood",
      "twitter_screen_name": "goreengfood",
      "website": ""
    }
  },
  {
    "name": "Hot Dog Stop",
    "cuisine": "Hot Dogs",
    "payment": "Unknown",
    "description": "Authentic New York Style hot dog cart",
    "schedule": {
      "monday": {},
      "tuesday": {
        "address": "11915 WA-99, Everett, WA 98204, USA",
        "open": "11:00",
        "close": "16:00",
        "geometry": {
          "coordinates": [
            -122.256387,
            47.888913
          ],
          "type": "Point"
        }
      },
      "wednesday": {
        "address": "11915 WA-99, Everett, WA 98204, USA",
        "open": "11:00",
        "close": "16:00",
        "geometry": {
          "coordinates": [
            -122.256387,
            47.888913
          ],
          "type": "Point"
        }
      },
      "thursday": {
        "address": "11915 WA-99, Everett, WA 98204, USA",
        "open": "11:00",
        "close": "16:00",
        "geometry": {
          "coordinates": [
            -122.256387,
            47.888913
          ],
          "type": "Point"
        }
      },
      "friday": {
        "address": "11915 WA-99, Everett, WA 98204, USA",
        "open": "11:00",
        "close": "16:00",
        "geometry": {
          "coordinates": [
            -122.256387,
            47.888913
          ],
          "type": "Point"
        }
      },
      "saturday": {
        "address": "11915 WA-99, Everett, WA 98204, USA",
        "open": "11:00",
        "close": "16:00",
        "geometry": {
          "coordinates": [
            -122.256387,
            47.888913
          ],
          "type": "Point"
        }
      },
      "sunday": {}
    },
    "contact": {
      "facebook": "",
      "twitter_link": "",
      "website": "http://hotdogstop.net/"
    }
  },
  {
    "name": "Falafel Salam",
    "cuisine": "Middle Eastern",
    "payment": "Cash or Cards",
    "description": "Gourmet, authentic falafel & shawarma",
    "schedule": {
      "monday": {},
      "tuesday": {
        "address": "401 Pine St, Seattle, WA 98101, USA",
        "open": "11:00",
        "close": "14:00",
        "geometry" : {
          "coordinates" : [
            -122.3369905,
            47.6118256
          ],
          "type": "Point"
        }
      },
      "wednesday": {
        "address": "Harrison St & Boren Ave N, Seattle, WA 98109, USA",
        "open": "11:00",
        "close": "14:00",
        "geometry": {
          "coordinates": [
            -122.3358359,
            47.6220217
          ],
          "type": "Point"
        }
      },
      "thursday": {
        "address": "Harrison St & Boren Ave N, Seattle, WA 98109, USA",
        "open": "11:00",
        "close": "14:00",
        "geometry": {
          "coordinates": [
            -122.3358359,
            47.6220217
          ],
          "type": "Point"
        }
      },
      "friday": {
        "address": "13th Ave & E Pike St, Seattle, WA 98122, USA",
        "open": "20:00",
        "close": "2:30",
        "geometry": {
          "coordinates": [
            -122.31543,
            47.6143608
          ],
          "type": "Point"
        }
      },
      "saturday": {
        "address": "Broadway & E Pike St, Seattle, WA 98122, USA",
        "open": "20:00",
        "close": "2:30",
        "geometry": {
          "coordinates": [
            -122.3208252,
            47.6140878
          ],
          "type": "Point"
        }
      },
      "sunday": {
        "address": "3401 Evanston Ave N, Seattle, WA 98103, USA",
        "open": "10:00",
        "close": "16:00",
        "geometry": {
          "coordinates": [
            -122.3516227,
            47.65011399999999
          ],
          "type": "Point"
        }
      }
    },
    "contact": {
      "facebook": "https://www.facebook.com/FalafelSalam",
      "twitter_link": "https://twitter.com/FalafelSalam",
      "twitter_screen_name": "FalafelSalam",
      "website": "http://falafelsalam.com"
    }
  },
  {
    "name": "I Love My GFF",
    "cuisine": "Gluten-Free / Vegetarian",
    "payment": "Cash or Cards",
    "description": "Healthy Food With Street Smarts. We serve up sprouted organic quinoa bowls loaded with layers of tangy sauces, veggies, and spice rubbed Draper Valley chicken. It’s mostly organic and 100% gluten free. Vegan options are available.",
    "schedule": {
      "monday": {
        "address": "1000 Minor Ave, Seattle, WA 98104, USA",
        "open": "11:00",
        "close": "14:00",
        "geometry": {
          "coordinates": [
            -122.3239246,
            47.61014850000001
          ],
          "type": "Point"
        }
      },
      "tuesday": {
        "address": "1001 Mercer St, Seattle, WA 98109, USA",
        "open": "11:00",
        "close": "14:00",
        "geometry": {
          "coordinates": [
            -122.33675,
            47.624104
          ],
          "type": "Point"
        }
      },
      "wednesday": {
        "address": "1000 Minor Ave, Seattle, WA 98104, USA",
        "open": "11:00",
        "close": "14:00",
        "geometry": {
          "coordinates": [
            -122.3239246,
            47.61014850000001
          ],
          "type": "Point"
        }
      },
      "thursday": {
        "address": "1001 Mercer St, Seattle, WA 98109, USA",
        "open": "11:00",
        "close": "14:00",
        "geometry": {
          "coordinates": [
            -122.33675,
            47.624104
          ],
          "type": "Point"
        }
      },
      "friday": {
        "address": "2401 Utah Ave S, Seattle, WA 98134, USA",
        "open": "11:00",
        "close": "14:00",
        "geometry": {
          "coordinates": [
            -122.3358992,
            47.5810044
          ],
          "type": "Point"
        }
      },
      "saturday": {},
      "sunday": {
        "address": "Mercer Island, WA, USA",
        "open": "10:00",
        "close": "15:00",
        "geometry": {
          "coordinates": [
            -122.2220673,
            47.5706548
          ],
          "type": "Point"
        }
      }
    },
    "contact": {
      "facebook": "https://www.facebook.com/pages/I-Love-My-GFF-Mobile-Food/318304551534655",
      "twitter_link": "https://twitter.com/healthyfoodcart",
      "twitter_screen_name": "healthyfoodcart",
      "website": "http://www.ilovemygff.com"
    }
  },
  {
    "name": "Moreno Mexican Food",
    "cuisine": "Mexican",
    "payment": "Cash or Cards",
    "description": "Tortas Tacos Burritos Quesadillas And Catrachan Food",
    "schedule": {
      "monday": {
        "address": "551 S Michigan St, Seattle, WA 98108, USA",
        "open": "6:00",
        "close": "21:00",
        "geometry": {
          "coordinates": [
            -122.3270074,
            47.5458454
          ],
          "type": "Point"
        }
      },
      "tuesday": {
        "address": "551 S Michigan St, Seattle, WA 98108, USA",
        "open": "6:00",
        "close": "21:00",
        "geometry": {
          "coordinates": [
            -122.3270074,
            47.5458454
          ],
          "type": "Point"
        }
      },
      "wednesday": {
        "address": "551 S Michigan St, Seattle, WA 98108, USA",
        "open": "6:00",
        "close": "21:00",
        "geometry": {
          "coordinates": [
            -122.3270074,
            47.5458454
          ],
          "type": "Point"
        }
      },
      "thursday": {
        "address": "551 S Michigan St, Seattle, WA 98108, USA",
        "open": "6:00",
        "close": "21:00",
        "geometry": {
          "coordinates": [
            -122.3270074,
            47.5458454
          ],
          "type": "Point"
        }
      },
      "friday": {
        "address": "551 S Michigan St, Seattle, WA 98108, USA",
        "open": "6:00",
        "close": "21:00",
        "geometry": {
          "coordinates": [
            -122.3270074,
            47.5458454
          ],
          "type": "Point"
        }
      },
      "saturday": {
        "address": "551 S Michigan St, Seattle, WA 98108, USA",
        "open": "6:00",
        "close": "21:00",
        "geometry": {
          "coordinates": [
            -122.3270074,
            47.5458454
          ],
          "type": "Point"
        }
      },
      "sunday": {}
    },
    "contact": {
      "facebook": "https://www.facebook.com/morenomexicatrachan.aguilar",
      "twitter_link": "",
      "website": ""
    }
  },
  {
    "name": "Made in Taiwan Food Trailer",
    "cuisine": "Taiwanese",
    "payment": "Cash or Cards",
    "description": "Taiwanese street food",
    "schedule": {
      "monday": {},
      "tuesday": {
        "address": "503 6th St S, Kirkland, WA 98033, USA",
        "open": "17:00",
        "close": "21:00",
        "geometry": {
          "coordinates": [
            -122.1967387,
            47.6717705
          ],
          "type": "Point"
        }
      },
      "wednesday": {
        "address": "503 6th St S, Kirkland, WA 98033, USA",
        "open": "17:00",
        "close": "21:00",
        "geometry": {
          "coordinates": [
            -122.1967387,
            47.6717705
          ],
          "type": "Point"
        }
      },
      "thursday": {
        "address": "503 6th St S, Kirkland, WA 98033, USA",
        "open": "17:00",
        "close": "21:00",
        "geometry": {
          "coordinates": [
            -122.1967387,
            47.6717705
          ],
          "type": "Point"
        }
      },
      "friday": {},
      "saturday": {
        "address": "17625 NE 65th St, Redmond, WA 98052, USA",
        "open": "15:00",
        "close": "21:00",
        "geometry": {
          "coordinates": [
            -122.1049839,
            47.6635538
          ],
          "type": "Point"
        }
      },
      "sunday": {}
    },
    "contact": {
      "facebook": "https://www.facebook.com/mitfoodtrailer",
      "twitter_link": "https://twitter.com/mittrailerfood",
      "twitter_screen_name": "mittrailerfood",
      "website": "http://mitfoodtrailer.com/"
    }
  },
  {
    "name": "Mini … The Dough-Nut",
    "cuisine": "Sweets",
    "payment": "Cash or Cards",
    "description": "",
    "schedule": {
      "monday": {},
      "tuesday": {},
      "wednesday": {},
      "thursday": {
        "address": "E Union St & 23rd Ave, Seattle, WA 98122, USA",
        "open": "16:00",
        "close": "22:00",
        "geometry": {
          "coordinates": [
            -122.3027107,
            47.6129416
          ],
          "type": "Point"
        }
      },
      "friday": {},
      "saturday": {
        "address": "Des Moines, WA, USA",
        "open": "10:00",
        "close": "14:00",
        "geometry": {
          "coordinates": [
            -122.3242902,
            47.4017661
          ],
          "type": "Point"
        }
      },
      "sunday": {
        "address": "E Union St & 23rd Ave, Seattle, WA 98122, USA",
        "open": "11:00",
        "close": "19:00",
        "geometry": {
          "coordinates": [
            -122.3027107,
            47.6129416
          ],
          "type": "Point"
        }
      }
    },
    "contact": {
      "facebook": "https://www.facebook.com/pages/Mini-the-dough-nut/544243405716866",
      "twitter_link": "https://twitter.com/MiniTheDoughNut",
      "twitter_screen_name": "MiniTheDoughNut",
      "website": "http://www.minithedough-nut.com"
    }
  },
  {
    "name": "It’s Bao Time",
    "cuisine": "Taiwanese",
    "payment": "Cash or Cards",
    "description": "Homage to the original Taiwanese night market foods.",
    "schedule": {
      "monday": {
        "address": "333 Boren Ave N, Seattle, WA 98109, USA",
        "open": "11:00",
        "close": "14:00",
        "geometry": {
          "coordinates": [
            -122.3362079,
            47.6213267
          ],
          "type": "Point"
        }
      },
      "tuesday": {
        "address": "Westlake Ave N & Harrison St, Seattle, WA 98109, USA",
        "open": "11:00",
        "close": "14:00",
        "geometry": {
          "coordinates": [
            -122.3384426,
            47.6220467
          ],
          "type": "Point"
        }
      },
      "wednesday": {
        "address": "2401 Utah Ave S, Seattle, WA 98134, USA",
        "open": "11:00",
        "close": "14:00",
        "geometry": {
          "coordinates": [
            -122.3358992,
            47.5810044
          ],
          "type": "Point"
        }
      },
      "thursday": {
        "address": "Westlake Ave N & Harrison St, Seattle, WA 98109, USA",
        "open": "11:00",
        "close": "14:00",
        "geometry": {
          "coordinates": [
            -122.3384426,
            47.6220467
          ],
          "type": "Point"
        }
      },
      "friday": {
        "address": "333 Boren Ave N, Seattle, WA 98109, USA",
        "open": "11:00",
        "close": "14:00",
        "geometry": {
          "coordinates": [
            -122.3362079,
            47.6213267
          ],
          "type": "Point"
        }
      },
      "saturday": {},
      "sunday": {}
    },
    "contact": {
      "facebook": "https://www.facebook.com/itsbaotime/",
      "twitter_link": "https://twitter.com/baotime206",
      "twitter_screen_name": "baotime206",
      "website": ""
    }
  },
  {
    "name": "KC Deez BBQ",
    "cuisine": "Kansas City Style Barbecue",
    "payment": "Cash or Cards",
    "description": "KC Deez BBQ will bring Kansas City Style Barbecue to the Pacific Northwest. Please enjoy the nice smooth Jazz and Blues while you order from our menu.",
    "schedule": {
      "monday": {},
      "tuesday": {},
      "wednesday": {
        "address": "707 S Grady Way, Renton, WA 98057, USA",
        "open": "11:00",
        "close": "14:00",
        "geometry": {
          "coordinates": [
            -122.2091409,
            47.4718045
          ],
          "type": "Point"
        }
      },
      "thursday": {
        "address": "34834 Weyerhaeuser Way S, Federal Way, WA 98001, USA",
        "open": "11:00",
        "close": "14:00",
        "geometry": {
          "coordinates": [
            -122.2911251,
            47.289491
          ],
          "type": "Point"
        }
      },
      "friday": {
        "address": "12833 Martin Luther King Jr Way S, Seattle, WA 98178, USA",
        "open": "12:00",
        "close": "19:00",
        "geometry": {
          "coordinates": [
            -122.2589926,
            47.4876357
          ],
          "type": "Point"
        }
      },
      "saturday": {
        "address": "Federal Way, WA, USA",
        "open": "9:00",
        "close": "15:00",
        "geometry": {
          "coordinates": [
            -122.3126222,
            47.3223221
          ],
          "type": "Point"
        }
      },
      "sunday": {
        "address": "5718 Rainier Ave S, Seattle, WA 98118, USA",
        "open": "13:00",
        "close": "18:00",
        "geometry": {
          "coordinates": [
            -122.2770789,
            47.5507863
          ],
          "type": "Point"
        }
      }
    },
    "contact": {
      "facebook": "https://www.facebook.com/pages/KC-Deez-BBQ/260845727373783",
      "twitter_link": "https://twitter.com/KCDeezBBQ",
      "twitter_screen_name": "KCDeezBBQ",
      "website": ""
    }
  },
  {
    "name": "Jemil’s Big Easy",
    "cuisine": "Cajun / Creole",
    "payment": "Cash or Cards",
    "description": "Down home cajun soul food",
    "schedule": {
      "monday": {
        "address": "Republican St & Terry Ave N, Seattle, WA 98109, USA",
        "open": "11:00",
        "close": "14:00",
        "geometry": {
          "coordinates": [
            -122.3371371,
            47.6232018
          ],
          "type": "Point"
        }
      },
      "tuesday": {
        "address": "Pine St & 7th Ave, Seattle, WA 98101, USA",
        "open": "11:00",
        "close": "14:00",
        "geometry": {
          "coordinates": [
            -122.3342451,
            47.6126111
          ],
          "type": "Point"
        }
      },
      "wednesday": {},
      "thursday": {
        "address": "401 Pine St, Seattle, WA 98101, USA",
        "open": "11:00",
        "close": "14:00",
        "geometry" : {
          "coordinates" : [
            -122.3369905,
            47.6118256
          ],
          "type": "Point"
        }
      },
      "friday": {},
      "saturday": {
        "address": "Des Moines, WA, USA",
        "open": "10:00",
        "close": "14:00",
        "geometry": {
          "coordinates": [
            -122.3242902,
            47.4017661
          ],
          "type": "Point"
        }
      },
      "sunday": {}
    },
    "contact": {
      "facebook": "https://www.facebook.com/jemilsbigeasy",
      "twitter_link": "https://twitter.com/JemilsBigEasy",
      "twitter_screen_name": "JemilsBigEasy",
      "website": "http://jemilsbigeasy.com"
    }
  },
  {
    "name": "Gibson’s Frozen Yogurt Truck",
    "cuisine": "Dessert",
    "payment": "Cash or Cards",
    "description": "Light, creamy, self serve frozen yogurt with a multitude of toppings, all from a truck",
    "schedule": {
      "monday": {
        "address": "1102 A St, Tacoma, WA 98402, USA",
        "open": "11:30",
        "close": "15:30",
        "geometry": {
          "coordinates": [
            -122.4373449,
            47.2529952
          ],
          "type": "Point"
        }
      },
      "tuesday": {},
      "wednesday": {
        "address": "1102 A St, Tacoma, WA 98402, USA",
        "open": "11:30",
        "close": "15:30",
        "geometry": {
          "coordinates": [
            -122.4373449,
            47.2529952
          ],
          "type": "Point"
        }
      },
      "thursday": {},
      "friday": {
        "address": "1102 A St, Tacoma, WA 98402, USA",
        "open": "11:30",
        "close": "15:30",
        "geometry": {
          "coordinates": [
            -122.4373449,
            47.2529952
          ],
          "type": "Point"
        }
      },
      "saturday": {},
      "sunday": {}
    },
    "contact": {
      "facebook": "https://www.facebook.com/GibsonsFrozenYogurtTruck",
      "twitter_link": "https://twitter.com/gibsonsyotruck",
      "twitter_screen_name": "gibsonsyotruck",
      "website": "http://www.gibsonsyogurt.com/truckeventcalendar.html"
    }
  },
  {
    "name": "Kiss My Grits",
    "cuisine": "Grits-Themed Cuisine",
    "payment": "Cash or Cards",
    "description": "Grits-Themed Cuisine",
    "schedule": {
      "monday": {},
      "tuesday": {},
      "wednesday": {
        "address": "2401 Utah Ave S, Seattle, WA 98134, USA",
        "open": "11:00",
        "close": "14:00",
        "geometry": {
          "coordinates": [
            -122.3358992,
            47.5810044
          ],
          "type": "Point"
        }
      },
      "thursday": {
        "address": "Queen Anne, Seattle, WA, USA",
        "open": "15:00",
        "close": "19:30",
        "geometry": {
          "coordinates": [
            -122.3568641,
            47.6323268
          ],
          "type": "Point"
        }
      },
      "friday": {},
      "saturday": {
        "address": "826 NW 49th St, Seattle, WA 98107, USA",
        "open": "15:00",
        "close": "20:00",
        "geometry": {
          "coordinates": [
            -122.367549,
            47.6645826
          ],
          "type": "Point"
        }
      },
      "sunday": {
        "address": "Mercer Island, WA, USA",
        "open": "10:00",
        "close": "15:00",
        "geometry": {
          "coordinates": [
            -122.2220673,
            47.5706548
          ],
          "type": "Point"
        }
      }
    },
    "contact": {
      "facebook": "https://www.facebook.com/kissmygritstruck",
      "twitter_link": "https://twitter.com/kmgtruck",
      "twitter_screen_name": "kmgtruck",
      "website": "http://www.kmgtruck.com"
    }
  },
  {
    "name": "Garden Sushi",
    "cuisine": "Japanese",
    "payment": "Cash or Cards",
    "description": "Seattle’s first sushi truck",
    "schedule": {
      "monday": {
        "address": "17th Ave NW & NW 54th St, Seattle, WA 98107, USA",
        "open": "11:00",
        "close": "21:00",
        "geometry": {
          "coordinates": [
            -122.3788833,
            47.6679018
          ],
          "type": "Point"
        }
      },
      "tuesday": {
        "address": "17th Ave NW & NW 54th St, Seattle, WA 98107, USA",
        "open": "11:00",
        "close": "21:00",
        "geometry": {
          "coordinates": [
            -122.3788833,
            47.6679018
          ],
          "type": "Point"
        }
      },
      "wednesday": {
        "address": "17th Ave NW & NW 54th St, Seattle, WA 98107, USA",
        "open": "11:00",
        "close": "21:00",
        "geometry": {
          "coordinates": [
            -122.3788833,
            47.6679018
          ],
          "type": "Point"
        }
      },
      "thursday": {
        "address": "17th Ave NW & NW 54th St, Seattle, WA 98107, USA",
        "open": "11:00",
        "close": "21:00",
        "geometry": {
          "coordinates": [
            -122.3788833,
            47.6679018
          ],
          "type": "Point"
        }
      },
      "friday": {
        "address": "17th Ave NW & NW 54th St, Seattle, WA 98107, USA",
        "open": "11:00",
        "close": "21:00",
        "geometry": {
          "coordinates": [
            -122.3788833,
            47.6679018
          ],
          "type": "Point"
        }
      },
      "saturday": {
        "address": "17th Ave NW & NW 54th St, Seattle, WA 98107, USA",
        "open": "12:00",
        "close": "21:00",
        "geometry": {
          "coordinates": [
            -122.3788833,
            47.6679018
          ],
          "type": "Point"
        }
      },
      "sunday": {
        "address": "17th Ave NW & NW 54th St, Seattle, WA 98107, USA",
        "open": "17:00",
        "close": "21:00",
        "geometry": {
          "coordinates": [
            -122.3788833,
            47.6679018
          ],
          "type": "Point"
        }
      }
    },
    "contact": {
      "facebook": "https://www.facebook.com/GardenSushi",
      "twitter_link": "",
      "website": "http://lauraellis.marketecturehosting.com"
    }
  },
  {
    "name": "Hungry Me",
    "cuisine": "Mixed East Asian",
    "payment": "Cash or Cards",
    "description": "Mixed fast Asian cuisine featuring Singaporean (Hainan) chicken rice, Japanese and Chinese beef brisket, Thai peanut sauce curry",
    "schedule": {
      "monday": {},
      "tuesday": {
        "address": "Thomas St & Boren Ave N, Seattle, WA 98109, USA",
        "open": "11:00",
        "close": "13:30",
        "geometry": {
          "coordinates": [
            -122.3358471,
            47.620864
          ],
          "type": "Point"
        }
      },
      "wednesday": {
        "address": "401 Elliott Ave W, Seattle, WA 98119, USA",
        "open": "11:00",
        "close": "13:30",
        "geometry": {
          "coordinates": [
            -122.3637702,
            47.6224854
          ],
          "type": "Point"
        }
      },
      "thursday": {
        "address": "Republican St & Boren Ave N, Seattle, WA 98109, USA",
        "open": "11:00",
        "close": "14:00",
        "geometry": {
          "coordinates": [
            -122.3358147,
            47.6232
          ],
          "type": "Point"
        }
      },
      "friday": {
        "address": "Thomas St & Boren Ave N, Seattle, WA 98109, USA",
        "open": "11:00",
        "close": "14:00",
        "geometry": {
          "coordinates": [
            -122.3358471,
            47.620864
          ],
          "type": "Point"
        }
      },
      "saturday": {},
      "sunday": {}
    },
    "contact": {
      "facebook": "https://www.facebook.com/hungrymeseattle",
      "twitter_link": "https://twitter.com/HungryMeSeattle",
      "twitter_screen_name": "HungryMeSeattle",
      "website": "http://www.hungrymeseattle.com/"
    }
  },
  {
    "name": "Macho Burgers",
    "cuisine": "Burgers",
    "payment": "Cash or Cards",
    "description": "Tex-Mex Hamburgers, sandwiches, fries & o-rings",
    "schedule": {
      "monday": {},
      "tuesday": {
        "address": "7758 15th Ave NW, Seattle, WA 98117, USA",
        "open": "11:00",
        "close": "22:00",
        "geometry": {
          "coordinates": [
            -122.3764522,
            47.6867025
          ],
          "type": "Point"
        }
      },
      "wednesday": {
        "address": "7758 15th Ave NW, Seattle, WA 98117, USA",
        "open": "11:00",
        "close": "22:00",
        "geometry": {
          "coordinates": [
            -122.3764522,
            47.6867025
          ],
          "type": "Point"
        }
      },
      "thursday": {
        "address": "7758 15th Ave NW, Seattle, WA 98117, USA",
        "open": "11:00",
        "close": "22:00",
        "geometry": {
          "coordinates": [
            -122.3764522,
            47.6867025
          ],
          "type": "Point"
        }
      },
      "friday": {
        "address": "7758 15th Ave NW, Seattle, WA 98117, USA",
        "open": "11:00",
        "close": "22:00",
        "geometry": {
          "coordinates": [
            -122.3764522,
            47.6867025
          ],
          "type": "Point"
        }
      },
      "saturday": {
        "address": "7758 15th Ave NW, Seattle, WA 98117, USA",
        "open": "11:00",
        "close": "22:00",
        "geometry": {
          "coordinates": [
            -122.3764522,
            47.6867025
          ],
          "type": "Point"
        }
      },
      "sunday": {
        "address": "7758 15th Ave NW, Seattle, WA 98117, USA",
        "open": "11:00",
        "close": "16:00",
        "geometry": {
          "coordinates": [
            -122.3764522,
            47.6867025
          ],
          "type": "Point"
        }
      }
    },
    "contact": {
      "facebook": "https://www.facebook.com/pages/Macho-Burgers/688330601235921",
      "twitter_link": "",
      "website": ""
    }
  },
  {
    "name": "My Chef Lynn",
    "cuisine": "BBQ / Comfort Food",
    "payment": "Cash or Cards",
    "description": "Soups, Salads and Sliders!",
    "schedule": {
      "monday": {},
      "tuesday": {},
      "wednesday": {
        "address": "Issaquah, WA, USA",
        "open": "11:00",
        "close": "13:30",
        "geometry": {
          "coordinates": [
            -122.0326191,
            47.5301011
          ],
          "type": "Point"
        }
      },
      "thursday": {},
      "friday": {
        "address": "2864 77th Ave SE, Mercer Island, WA 98040, USA",
        "open": "11:00",
        "close": "13:30",
        "geometry": {
          "coordinates": [
            -122.2348237,
            47.58458419999999
          ],
          "type": "Point"
        }
      },
      "saturday": {
        "address": "2864 77th Ave SE, Mercer Island, WA 98040, USA",
        "open": "11:00",
        "close": "13:30",
        "geometry": {
          "coordinates": [
            -122.2348237,
            47.58458419999999
          ],
          "type": "Point"
        }
      },
      "sunday": {}
    },
    "contact": {
      "facebook": "https://www.facebook.com/www.mycheflynn",
      "twitter_link": "https://twitter.com/mycheflynn",
      "twitter_screen_name": "mycheflynn",
      "website": "http://www.mycheflynn.com"
    }
  },
  {
    "name": "Kaosamai Thai Cook Truck",
    "cuisine": "Thai",
    "payment": "Cash only",
    "description": "Phad Thai, noodles, fried rice and curries",
    "schedule": {
      "monday": {
        "address": "Harrison St & Boren Ave N, Seattle, WA 98109, USA",
        "open": "11:00",
        "close": "14:00",
        "geometry": {
          "coordinates": [
            -122.3358359,
            47.6220217
          ],
          "type": "Point"
        }
      },
      "tuesday": {
        "address": "Westlake Ave N & John St, Seattle, WA 98109, USA",
        "open": "11:00",
        "close": "14:00",
        "geometry": {
          "coordinates": [
            -122.3384703,
            47.619713
          ],
          "type": "Point"
        }
      },
      "wednesday": {
        "address": "2401 Utah Ave S, Seattle, WA 98134, USA",
        "open": "11:00",
        "close": "14:00",
        "geometry": {
          "coordinates": [
            -122.3358992,
            47.5810044
          ],
          "type": "Point"
        }
      },
      "thursday": {},
      "friday": {
        "address": "Westlake Ave N & John St, Seattle, WA 98109, USA",
        "open": "11:00",
        "close": "14:00",
        "geometry": {
          "coordinates": [
            -122.3384703,
            47.619713
          ],
          "type": "Point"
        }
      },
      "saturday": {},
      "sunday": {}
    },
    "contact": {
      "facebook": "https://www.facebook.com/Kaosamai",
      "twitter_link": "https://twitter.com/Thaifoodtruck",
      "twitter_screen_name": "Thaifoodtruck",
      "website": "http://www.kaosamai.com"
    }
  },
  {
    "name": "Danielle’s Crêpes",
    "cuisine": "French",
    "payment": "Cash or Cards",
    "description": "Savory and sweet crepes; breakfast, lunch and dinner; hot coffee and espresso drinks",
    "schedule": {
      "monday": {},
      "tuesday": {
        "address": "6100 4th Ave S, Seattle, WA 98108, USA",
        "open": "11:00",
        "close": "14:00",
        "geometry": {
          "coordinates": [
            -122.3288835,
            47.54714329999999
          ],
          "type": "Point"
        }
      },
      "wednesday": {},
      "thursday": {},
      "friday": {
        "address": "Naval Reserve Armory, 860 Terry Ave N, Seattle, WA 98109, USA",
        "open": "11:00",
        "close": "15:00",
        "geometry": {
          "coordinates": [
            -122.3366394,
            47.62758640000001
          ],
          "type": "Point"
        }
      },
      "saturday": {},
      "sunday": {
        "address": "7216 Aurora Ave N, Seattle, WA 98103, USA",
        "open": "11:00",
        "close": "16:00",
        "geometry": {
          "coordinates": [
            -122.34403,
            47.6820809
          ],
          "type": "Point"
        }
      }
    },
    "contact": {
      "facebook": "https://www.facebook.com/pages/Crema-Creperie-Espresso-Bar/303099846462139",
      "twitter_link": "",
      "website": "http://cremacreperie.com/"
    }
  },
  {
    "name": "Fez!",
    "cuisine": "Mediterranean",
    "payment": "Cash or Cards",
    "description": "Modern Middle Eastern street food (and drink)!",
    "schedule": {
      "monday": {},
      "tuesday": {
        "address": "106th Ave NE & NE 6th St, Bellevue, WA 98004, USA",
        "open": "11:00",
        "close": "14:00",
        "geometry": {
          "coordinates": [
            -122.1989522,
            47.6155745
          ],
          "type": "Point"
        }
      },
      "wednesday": {
        "address": "6100 4th Ave S, Seattle, WA 98108, USA",
        "open": "11:00",
        "close": "14:00",
        "geometry": {
          "coordinates": [
            -122.3288835,
            47.54714329999999
          ],
          "type": "Point"
        }
      },
      "thursday": {
        "address": "106th Ave NE & NE 6th St, Bellevue, WA 98004, USA",
        "open": "11:00",
        "close": "14:00",
        "geometry": {
          "coordinates": [
            -122.1989522,
            47.6155745
          ],
          "type": "Point"
        }
      },
      "friday": {},
      "saturday": {},
      "sunday": {}
    },
    "contact": {
      "facebook": "https://www.facebook.com/FezOnWheels/info",
      "twitter_link": "https://twitter.com/fezonwheels",
      "twitter_screen_name": "fezonwheels",
      "website": "http://www.fezonwheels.com"
    }
  },
  {
    "name": "Papa Bois",
    "cuisine": "Caribbean Fusion",
    "payment": "Unknown",
    "description": "A mash up of Caribbean and Southeast Asian flavors",
    "schedule": {
      "monday": {
        "address": "12770 Gateway Dr, Tukwila, WA 98168, USA",
        "open": "11:30",
        "close": "13:30",
        "geometry": {
          "coordinates": [
            -122.2721837,
            47.4899981
          ],
          "type": "Point"
        }
      },
      "tuesday": {
        "address": "101 Elliott Ave W, Seattle, WA 98119, USA",
        "open": "11:30",
        "close": "13:30",
        "geometry": {
          "coordinates": [
            -122.359573,
            47.619075
          ],
          "type": "Point"
        }
      },
      "wednesday": {
        "address": "5303 Shilshole Ave NW, Seattle, WA 98107, USA",
        "open": "11:30",
        "close": "14:00",
        "geometry": {
          "coordinates": [
            -122.3844947,
            47.6658762
          ],
          "type": "Point"
        }
      },
      "thursday": {
        "address": "4100 Carillon Point, Kirkland, WA 98033, USA",
        "open": "11:30",
        "close": "13:30",
        "geometry": {
          "coordinates": [
            -122.2062427,
            47.6562795
          ],
          "type": "Point"
        }
      },
      "friday": {
        "address": "Skyline Tower, 10900 NE 4th St, Bellevue, WA 98004, USA",
        "open": "11:30",
        "close": "13:30",
        "geometry": {
          "coordinates": [
            -122.1944737,
            47.6141163
          ],
          "type": "Point"
        }
      },
      "saturday": {},
      "sunday": {
        "address": "6413 California Ave SW, Seattle, WA 98136, USA",
        "open": "17:00",
        "close": "20:00",
        "geometry": {
          "coordinates": [
            -122.3875492,
            47.5454455
          ],
          "type": "Point"
        }
      }
    },
    "contact": {
      "facebook": "https://www.facebook.com/PapaBoisFood",
      "twitter_link": "https://twitter.com/PapaBois_Food",
      "twitter_screen_name": "PapaBois_Food",
      "website": "http://www.papaboisfood.com/"
    }
  },
  {
    "name": "Here and There Grill",
    "cuisine": "Sandwiches",
    "payment": "Cash or Cards",
    "description": "Hearty sandwiches, salads and soups",
    "schedule": {
      "monday": {},
      "tuesday": {},
      "wednesday": {
        "address": "Dayton St & 4th Ave S, Edmonds, WA 98020, USA",
        "open": "11:00",
        "close": "19:00",
        "geometry": {
          "coordinates": [
            -122.3788736,
            47.8097098
          ],
          "type": "Point"
        }
      },
      "thursday": {
        "address": "23110 WA-99, Edmonds, WA 98026, USA",
        "open": "11:00",
        "close": "14:00",
        "geometry": {
          "coordinates": [
            -122.3391578,
            47.789376
          ],
          "type": "Point"
        }
      },
      "friday": {
        "address": "180 W Dayton St, Edmonds, WA 98020, USA",
        "open": "17:00",
        "close": "20:00",
        "geometry": {
          "coordinates": [
            -122.386851,
            47.808782
          ],
          "type": "Point"
        }
      },
      "saturday": {},
      "sunday": {}
    },
    "contact": {
      "facebook": "https://www.facebook.com/hereandtheregrill",
      "twitter_link": "https://twitter.com/heretheregrill",
      "twitter_screen_name": "heretheregrill",
      "website": "http://hereandtheregrill.com"
    }
  },
  {
    "name": "Kerry’s Caribbean Takeout",
    "cuisine": "Caribbean",
    "payment": "Cash or Cards",
    "description": "Exciting New Caribbean Theme Mobile Food Truck, operating in Tacoma and Lakewood",
    "schedule": {
      "monday": {
        "address": "Fort Lewis, 2202 Liggett Ave, Lewis Mcchord, WA 98433, USA",
        "open": "10:30",
        "close": "14:00",
        "geometry": {
          "coordinates": [
            -122.6024836,
            47.0888109
          ],
          "type": "Point"
        }
      },
      "tuesday": {
        "address": "Fort Lewis, 2202 Liggett Ave, Lewis Mcchord, WA 98433, USA",
        "open": "10:30",
        "close": "14:00",
        "geometry": {
          "coordinates": [
            -122.6024836,
            47.0888109
          ],
          "type": "Point"
        }
      },
      "wednesday": {
        "address": "Fort Lewis, 2202 Liggett Ave, Lewis Mcchord, WA 98433, USA",
        "open": "10:30",
        "close": "14:00",
        "geometry": {
          "coordinates": [
            -122.6024836,
            47.0888109
          ],
          "type": "Point"
        }
      },
      "thursday": {
        "address": "Fort Lewis, 2202 Liggett Ave, Lewis Mcchord, WA 98433, USA",
        "open": "10:30",
        "close": "14:00",
        "geometry": {
          "coordinates": [
            -122.6024836,
            47.0888109
          ],
          "type": "Point"
        }
      },
      "friday": {
        "address": "Fort Lewis, 2202 Liggett Ave, Lewis Mcchord, WA 98433, USA",
        "open": "10:30",
        "close": "14:00",
        "geometry": {
          "coordinates": [
            -122.6024836,
            47.0888109
          ],
          "type": "Point"
        }
      },
      "saturday": {},
      "sunday": {}
    },
    "contact": {
      "facebook": "https://www.facebook.com/kerryscaribbean.takeout",
      "twitter_link": "https://twitter.com/InfoKerrys",
      "twitter_screen_name": "InfoKerrys",
      "website": "http://www.kerryscaribbean.com/"
    }
  },
  {
    "name": "Hot Dog King",
    "cuisine": "Hot Dogs",
    "payment": "Cash or Cards",
    "description": "35 toppings to choose from, including 20 different mustards.  From the locally sourced half pound Jalapeño & Cheese Brat to the best Vegan sausage around, The Hot Dog King has got you covered.",
    "schedule": {
      "monday": {},
      "tuesday": {
        "address": "400 Westlake Ave N, Seattle, WA 98109, USA",
        "open": "11:00",
        "close": "14:00",
        "geometry": {
          "coordinates": [
            -122.3381453,
            47.6223094
          ],
          "type": "Point"
        }
      },
      "wednesday": {
        "address": "400 Westlake Ave N, Seattle, WA 98109, USA",
        "open": "11:00",
        "close": "14:00",
        "geometry": {
          "coordinates": [
            -122.3381453,
            47.6223094
          ],
          "type": "Point"
        }
      },
      "thursday": {
        "address": "400 Westlake Ave N, Seattle, WA 98109, USA",
        "open": "11:00",
        "close": "14:00",
        "geometry": {
          "coordinates": [
            -122.3381453,
            47.6223094
          ],
          "type": "Point"
        }
      },
      "friday": {
        "address": "400 Westlake Ave N, Seattle, WA 98109, USA",
        "open": "11:00",
        "close": "14:00",
        "geometry": {
          "coordinates": [
            -122.3381453,
            47.6223094
          ],
          "type": "Point"
        }
      },
      "saturday": {},
      "sunday": {}
    },
    "contact": {
      "facebook": "https://www.facebook.com/thehotdogking",
      "twitter_link": "",
      "website": ""
    }
  },
  {
    "name": "Mesob at the Curb",
    "cuisine": "Ethiopian",
    "payment": "Cash or Cards",
    "description": "Ethiopian cuisine",
    "schedule": {
      "monday": {
        "address": "2401 Utah Ave S, Seattle, WA 98134, USA",
        "geometry": {
          "coordinates": [
            -122.3358992,
            47.5810044
          ],
          "type": "Point"
        }
      },
      "tuesday": {
        "address": "106th Ave NE & NE 6th St, Bellevue, WA 98004, USA",
        "open": "11:00",
        "close": "14:00",
        "geometry": {
          "coordinates": [
            -122.1989522,
            47.6155745
          ],
          "type": "Point"
        }
      },
      "wednesday": {},
      "thursday": {},
      "friday": {
        "address": "Harrison St & Boren Ave N, Seattle, WA 98109, USA",
        "open": "11:00",
        "close": "14:00",
        "geometry": {
          "coordinates": [
            -122.3358359,
            47.6220217
          ],
          "type": "Point"
        }
      },
      "saturday": {},
      "sunday": {}
    },