[
  {
    "name": "Barriga Llena",
    "cuisine": "Mexican",
    "payment": "Cash or Cards",
    "description": "Barriga Llena was the first vendor to introduce traditional Mexican tortas to Seattle, just the way you have them in Mexico City.",
    "schedule": {
      "monday": {
        "address": "Harrison St & Boren Ave N, Seattle, WA 98109, USA",
        "open": "11:00",
        "close": "14:00",
        "geometry": {
          "coordinates": [
            -122.3358359,
            47.6220217
          ],
          "type": "Point"
        }
      },
      "tuesday": {},
      "wednesday": {},
      "thursday": {},
      "friday": {},
      "saturday": {},
      "sunday": {}
    },
    "contact": {
      "facebook": "https://www.facebook.com/barrigallenaseattle",
      "twitter_link": "https://twitter.com/barrigallena",
      "twitter_screen_name": "barrigallena",
      "website": "http://www.labarrigallena.com"
    }
  },
  {
    "name": "314 PIE",
    "cuisine": "Sweet and Savory Pies",
    "payment": "Cash or Cards",
    "description": "We love pies – sweet and savory. We serve them up to the hungry people in Seattle in our fabulous food truck.",
    "schedule": {
      "monday": {},
      "tuesday": {},
      "wednesday": {
        "address": "333 Boren Ave N, Seattle, WA 98109, USA",
        "open": "11:00",
        "close": "14:00",
        "geometry": {
          "coordinates": [
            -122.3362079,
            47.6213267
          ],
          "type": "Point"
        }
      },
      "thursday": {
        "address": "Republican St & Boren Ave N, Seattle, WA 98109, USA",
        "open": "11:00",
        "close": "14:00",
        "geometry": {
          "coordinates": [
            -122.3358147,
            47.6232
          ],
          "type": "Point"
        }
      },
      "friday": {},
      "saturday": {},
      "sunday": {}
    },
    "contact": {
      "facebook": "https://www.facebook.com/pages/314-PIE/341309415945288",
      "twitter_link": "https://twitter.com/314PIESeattle",
      "twitter_screen_name": "314PIESeattle",
      "website": "http://www.314pieseattle.com/"
    }
  },
  {
    "name": "Beloved Mexico",
    "cuisine": "Mexican",
    "payment": "Cash or Cards",
    "description": "Authentic Mexican cuisine made w/ natural, organic ingredients.",
    "schedule": {
      "monday": {
        "address": "4722 Fauntleroy Way SW, Seattle, WA 98116, USA",
        "open": "10:00",
        "close": "20:00",
        "geometry": {
          "coordinates": [
            -122.3809729,
            47.56032630000001
          ],
          "type": "Point"
        }
      },
      "tuesday": {
        "address": "4722 Fauntleroy Way SW, Seattle, WA 98116, USA",
        "open": "10:00",
        "close": "20:00",
        "geometry": {
          "coordinates": [
            -122.3809729,
            47.56032630000001
          ],
          "type": "Point"
        }
      },
      "wednesday": {
        "address": "4722 Fauntleroy Way SW, Seattle, WA 98116, USA",
        "open": "10:00",
        "close": "20:00",
        "geometry": {
          "coordinates": [
            -122.3809729,
            47.56032630000001
          ],
          "type": "Point"
        }
      },
      "thursday": {
        "address": "4722 Fauntleroy Way SW, Seattle, WA 98116, USA",
        "open": "10:00",
        "close": "20:00",
        "geometry": {
          "coordinates": [
            -122.3809729,
            47.56032630000001
          ],
          "type": "Point"
        }
      },
      "friday": {
        "address": "4722 Fauntleroy Way SW, Seattle, WA 98116, USA",
        "open": "10:00",
        "close": "20:00",
        "geometry": {
          "coordinates": [
            -122.3809729,
            47.56032630000001
          ],
          "type": "Point"
        }
      },
      "saturday": {
        "address": "4722 Fauntleroy Way SW, Seattle, WA 98116, USA",
        "open": "10:00",
        "close": "20:00",
        "geometry": {
          "coordinates": [
            -122.3809729,
            47.56032630000001
          ],
          "type": "Point"
        }
      },
      "sunday": {
        "address": "4722 Fauntleroy Way SW, Seattle, WA 98116, USA",
        "open": "10:00",
        "close": "20:00",
        "geometry": {
          "coordinates": [
            -122.3809729,
            47.56032630000001
          ],
          "type": "Point"
        }
      }
    },
    "contact": {
      "facebook": "",
      "twitter_link": "",
      "website": "http://www.belovedmexico.com"
    }
  },
  {
    "name": "A Fire Inside Wood Fired Pizza",
    "cuisine": "Pizza",
    "payment": "Cash or Cards",
    "description": "Neapolitan Thin Crust Wood Fired Pizza",
    "schedule": {
      "monday": {
        "address": "5th Ave & Union St, Seattle, WA 98101, USA",
        "open": "10:30",
        "close": "14:00",
        "geometry": {
          "coordinates": [
            -122.334667,
            47.6096839
          ],
          "type": "Point"
        }
      },
      "tuesday": {
        "address": "83 S King St, Seattle, WA 98104, USA",
        "open": "10:30",
        "close": "14:00",
        "geometry": {
          "coordinates": [
            -122.3345507,
            47.5981458
          ],
          "type": "Point"
        }
      },
      "wednesday": {
        "address": "6th St & Park Ave, Bremerton, WA 98337, USA",
        "open": "10:30",
        "close": "14:00",
        "geometry": {
          "coordinates": [
            -122.6302286,
            47.5673165
          ],
          "type": "Point"
        }
      },
      "thursday": {
        "address": "83 S King St, Seattle, WA 98104, USA",
        "open": "10:30",
        "close": "18:00",
        "geometry": {
          "coordinates": [
            -122.3345507,
            47.5981458
          ],
          "type": "Point"
        }
      },
      "friday": {
        "address": "5th Ave & Union St, Seattle, WA 98101, USA",
        "open": "10:30",
        "close": "14:00",
        "geometry": {
          "coordinates": [
            -122.334667,
            47.6096839
          ],
          "type": "Point"
        }
      },
      "saturday": {},
      "sunday": {}
    },
    "contact": {
      "facebook": "https://www.facebook.com/AFireInsideWoodFiredPizza",
      "twitter_link": "",
      "website": ""
    }
  },
  {
    "name": "Caravan Crêpes",
    "cuisine": "French",
    "payment": "Cash or Cards",
    "description": "Sweet and Savory Crêpes",
    "schedule": {
      "monday": {},
      "tuesday": {
        "address": "Harrison St & Boren Ave N, Seattle, WA 98109, USA",
        "geometry": {
          "coordinates": [
            -122.3358359,
            47.6220217
          ],
          "type": "Point"
        }
      },
      "wednesday": {
        "address": "S Dearborn St & 5th Ave S, Seattle, WA 98134, USA",
        "open": "11:00",
        "close": "13:30",
        "geometry": {
          "coordinates": [
            -122.3276378,
            47.5958642
          ],
          "type": "Point"
        }
      },
      "thursday": {},
      "friday": {
        "address": "Westlake Ave N & Harrison St, Seattle, WA 98109, USA",
        "open": "11:00",
        "close": "14:00",
        "geometry": {
          "coordinates": [
            -122.3384426,
            47.6220467
          ],
          "type": "Point"
        }
      },
      "saturday": {
        "address": "Magnolia, Seattle, WA, USA",
        "open": "10:00",
        "close": "14:00",
        "geometry": {
          "coordinates": [
            -122.3996602,
            47.63963020000001
          ],
          "type": "Point"
        }
      },
      "sunday": {}
    },
    "contact": {
      "facebook": "",
      "twitter_link": "https://twitter.com/caravanseattle",
      "twitter_screen_name": "caravanseattle",
      "website": "http://www.caravanseattle.com"
    }
  },
  {
    "name": "Bomba Fusion",
    "cuisine": "Korean / Mexican Fusion",
    "payment": "Cash or Cards",
    "description": "",
    "schedule": {
      "monday": {
        "address": "1120 Harrison St, Seattle, WA 98109, USA",
        "open": "11:00",
        "close": "14:00",
        "geometry": {
          "coordinates": [
            -122.3352093,
            47.622025
          ],
          "type": "Point"
        }
      },
      "tuesday": {
        "address": "401 Pine St, Seattle, WA 98101, USA",
        "open": "11:00",
        "close": "14:00",
        "geometry" : {
          "coordinates" : [
            -122.3369905,
            47.6118256
          ],
          "type": "Point"
        }
      },
      "wednesday": {
        "address": "1000 4th Ave, Seattle, WA 98104, USA",
        "open": "11:00",
        "close": "14:00",
        "geometry": {
          "coordinates": [
            -122.3329838,
            47.6066004
          ],
          "type": "Point"
        }
      },
      "thursday": {
        "address": "401 Pine St, Seattle, WA 98101, USA",
        "open": "11:00",
        "close": "14:00",
        "geometry" : {
          "coordinates" : [
            -122.3369905,
            47.6118256
          ],
          "type": "Point"
        }
      },
      "friday": {
        "address": "S Main St & Occidental Ave S, Seattle, WA 98104, USA",
        "open": "11:00",
        "close": "14:00",
        "geometry": {
          "coordinates": [
            -122.3328885,
            47.6000475
          ],
          "type": "Point"
        }
      },
      "saturday": {},
      "sunday": {}
    },
    "contact": {
      "facebook": "https://www.facebook.com/bombafusion",
      "twitter_link": "https://twitter.com/bombafusion",
      "twitter_screen_name": "bombafusion",
      "website": "http://bombafusion.com/"
    }
  },
  {
    "name": "Chick’n Fix",
    "cuisine": "American / Filipino",
    "payment": "Cash or Cards",
    "description": "Serving up delicious chicken treats!",
    "schedule": {
      "monday": {},
      "tuesday": {
        "address": "Harrison St & Boren Ave N, Seattle, WA 98109, USA",
        "open": "11:00",
        "close": "14:00",
        "geometry": {
          "coordinates": [
            -122.3358359,
            47.6220217
          ],
          "type": "Point"
        }
      },
      "wednesday": {},
      "thursday": {
        "address": "Harrison St & Boren Ave N, Seattle, WA 98109, USA",
        "open": "11:00",
        "close": "14:00",
        "geometry": {
          "coordinates": [
            -122.3358359,
            47.6220217
          ],
          "type": "Point"
        }
      },
      "friday": {},
      "saturday": {},
      "sunday": {}
    },
    "contact": {
      "facebook": "https://www.facebook.com/chickn.fix",
      "twitter_link": "https://twitter.com/Chicknfix",
      "twitter_screen_name": "Chicknfix",
      "website": "http://www.chicknfix.com"
    }
  },
  {
    "name": "Campfire Chuck Wagon",
    "cuisine": "BBQ",
    "payment": "Cash or Cards",
    "description": "Slow and low BBQ – our happy meats are sourced locally whenever possible and smoked on average an hour and a half per pound over a real wood fire.",
    "schedule": {
      "monday": {},
      "tuesday": {},
      "wednesday": {},
      "thursday": {
        "address": "2300 7th Ave, Seattle, WA 98121, USA",
        "open": "11:00",
        "close": "don:00em",
        "geometry": {
          "coordinates": [
            -122.3415988,
            47.6177514
          ],
          "type": "Point"
        }
      },
      "friday": {
        "address": "2300 7th Ave, Seattle, WA 98121, USA",
        "open": "11:00",
        "close": "don:00em",
        "geometry": {
          "coordinates": [
            -122.3415988,
            47.6177514
          ],
          "type": "Point"
        }
      },
      "saturday": {},
      "sunday": {}
    },
    "contact": {
      "facebook": "https://www.facebook.com/campfireforyou",
      "twitter_link": "https://twitter.com/campfireforyou",
      "twitter_screen_name": "campfireforyou",
      "website": "http://campfireforyou.com/"
    }
  },
  {
    "name": "Bread and Circuses",
    "cuisine": "Gastropub Style",
    "payment": "Cash or Cards",
    "description": "Gastropub",
    "schedule": {
      "monday": {},
      "tuesday": {},
      "wednesday": {},
      "thursday": {
        "address": "106th Ave NE & NE 6th St, Bellevue, WA 98004, USA",
        "open": "11:00",
        "close": "14:00",
        "geometry": {
          "coordinates": [
            -122.1989522,
            47.6155745
          ],
          "type": "Point"
        }
      },
      "friday": {
        "address": "Bellefield Office Park Conference Center, 1150 114th Ave SE #100, Bellevue, WA 98004, USA",
        "open": "11:00",
        "close": "14:00",
        "geometry": {
          "coordinates": [
            -122.1870081,
            47.60039039999999
          ],
          "type": "Point"
        }
      },
      "saturday": {},
      "sunday": {}
    },
    "contact": {
      "facebook": "https://www.facebook.com/breadandcircusestruck",
      "twitter_link": "https://twitter.com/circustruck",
      "twitter_screen_name": "circustruck",
      "website": "http://www.eatbreadandcircuses.com/"
    }
  },
  {
    "name": "Cheese Wizards",
    "cuisine": "Sandwiches",
    "payment": "Cash, Cards, or Level Up",
    "description": "Grilled Cheese Magic",
    "schedule": {
      "monday": {
        "address": "Westlake Ave N & Republican St, Seattle, WA 98109, USA",
        "open": "11:00",
        "close": "14:00",
        "geometry": {
          "coordinates": [
            -122.3384361,
            47.6232102
          ],
          "type": "Point"
        }
      },
      "tuesday": {
        "address": "144 Western Ave W, Seattle, WA 98119, USA",
        "open": "11:00",
        "close": "14:00",
        "geometry": {
          "coordinates": [
            -122.358627,
            47.6195956
          ],
          "type": "Point"
        }
      },
      "wednesday": {
        "address": "106th Ave NE & NE 6th St, Bellevue, WA 98004, USA",
        "open": "11:00",
        "close": "14:00",
        "geometry": {
          "coordinates": [
            -122.1989522,
            47.6155745
          ],
          "type": "Point"
        }
      },
      "thursday": {
        "address": "Westlake Ave N & Republican St, Seattle, WA 98109, USA",
        "open": "11:00",
        "close": "14:00",
        "geometry": {
          "coordinates": [
            -122.3384361,
            47.6232102
          ],
          "type": "Point"
        }
      },
      "friday": {
        "address": "144 Western Ave W, Seattle, WA 98119, USA",
        "open": "11:00",
        "close": "14:00",
        "geometry": {
          "coordinates": [
            -122.358627,
            47.6195956
          ],
          "type": "Point"
        }
      },
      "saturday": {},
      "sunday": {}
    },
    "contact": {
      "facebook": "https://www.facebook.com/CheeseWizards",
      "twitter_link": "https://twitter.com/CheeseWizards",
      "twitter_screen_name": "CheeseWizards",
      "website": "http://wizardsofcheese.com"
    }
  },
  {
    "name": "Carmelitos",
    "cuisine": "Peruvian",
    "payment": "Cash or Cards",
    "description": "We are a Peruvian treat truck specializing in doughnuts, cakes, cookies, and ice creams. We also serve fresh juice as well as cold brew and pour over style coffee.",
    "schedule": {
      "monday": {},
      "tuesday": {},
      "wednesday": {},
      "thursday": {
        "address": "6300 Seaview Ave NW, Seattle, WA 98107, USA",
        "open": "10:00",
        "close": "18:00",
        "geometry": {
          "coordinates": [
            -122.4060338,
            47.67448410000001
          ],
          "type": "Point"
        }
      },
      "friday": {
        "address": "6300 Seaview Ave NW, Seattle, WA 98107, USA",
        "open": "10:00",
        "close": "18:00",
        "geometry": {
          "coordinates": [
            -122.4060338,
            47.67448410000001
          ],
          "type": "Point"
        }
      },
      "saturday": {
        "address": "6300 Seaview Ave NW, Seattle, WA 98107, USA",
        "open": "10:00",
        "close": "18:00",
        "geometry": {
          "coordinates": [
            -122.4060338,
            47.67448410000001
          ],
          "type": "Point"
        }
      },
      "sunday": {
        "address": "6300 Seaview Ave NW, Seattle, WA 98107, USA",
        "open": "10:00",
        "close": "18:00",
        "geometry": {
          "coordinates": [
            -122.4060338,
            47.67448410000001
          ],
          "type": "Point"
        }
      }
    },
    "contact": {
      "facebook": "https://www.facebook.com/carmelitosballard",
      "twitter_link": "",
      "website": ""
    }
  },
  {
    "name": "Big Dog’s",
    "cuisine": "Hot Dogs",
    "payment": "Cash or Cards",
    "description": "Biggest Weiner Around!",
    "schedule": {
      "monday": {
        "address": "University of Washington Bothell, 18115 Campus Way NE, Bothell, WA 98011, USA",
        "open": "11:00",
        "close": "14:00",
        "geometry": {
          "coordinates": [
            -122.1907054,
            47.7590975
          ],
          "type": "Point"
        }
      },
      "tuesday": {
        "address": "19940 Old Owen Rd, Monroe, WA 98272, USA",
        "open": "11:00",
        "close": "16:30",
        "geometry": {
          "coordinates": [
            -121.9638701,
            47.8580377
          ],
          "type": "Point"
        }
      },
      "wednesday": {},
      "thursday": {
        "address": "19940 Old Owen Rd, Monroe, WA 98272, USA",
        "open": "11:00",
        "close": "16:30",
        "geometry": {
          "coordinates": [
            -121.9638701,
            47.8580377
          ],
          "type": "Point"
        }
      },
      "friday": {
        "address": "19940 Old Owen Rd, Monroe, WA 98272, USA",
        "open": "11:00",
        "close": "16:30",
        "geometry": {
          "coordinates": [
            -121.9638701,
            47.8580377
          ],
          "type": "Point"
        }
      },
      "saturday": {
        "address": "19940 Old Owen Rd, Monroe, WA 98272, USA",
        "open": "11:00",
        "close": "16:30",
        "geometry": {
          "coordinates": [
            -121.9638701,
            47.8580377
          ],
          "type": "Point"
        }
      },
      "sunday": {
        "address": "19940 Old Owen Rd, Monroe, WA 98272, USA",
        "open": "11:00",
        "close": "16:30",
        "geometry": {
          "coordinates": [
            -121.9638701,
            47.8580377
          ],
          "type": "Point"
        }
      }
    },
    "contact": {
      "facebook": "https://www.facebook.com/BigDogsTacos",
      "twitter_link": "https://twitter.com/BigDogBuzz",
      "twitter_screen_name": "BigDogBuzz",
      "website": ""
    }
  },
  {
    "name": "Charlie’s",
    "cuisine": "Burgers / Cheesesteaks",
    "payment": "Cash or Cards",
    "description": "A fresh take on American diner fare",
    "schedule": {
      "monday": {
        "address": "531 Stewart St, Seattle, WA 98101, USA",
        "open": "11:00",
        "close": "14:00",
        "geometry": {
          "coordinates": [
            -122.3376094,
            47.61316679999999
          ],
          "type": "Point"
        }
      },
      "tuesday": {
        "address": "Microsoft W Campus Access Rd, Redmond, WA 98052, USA",
        "open": "11:00",
        "close": "14:00",
        "geometry": {
          "coordinates": [
            -122.1405316,
            47.66032999999999
          ],
          "type": "Point"
        }
      },
      "wednesday": {},
      "thursday": {
        "address": "Microsoft W Campus Access Rd, Redmond, WA 98052, USA",
        "open": "11:00",
        "close": "14:00",
        "geometry": {
          "coordinates": [
            -122.1405316,
            47.66032999999999
          ],
          "type": "Point"
        }
      },
      "friday": {
        "address": "Microsoft W Campus Access Rd, Redmond, WA 98052, USA",
        "open": "11:00",
        "close": "14:00",
        "geometry": {
          "coordinates": [
            -122.1405316,
            47.66032999999999
          ],
          "type": "Point"
        }
      },
      "saturday": {},
      "sunday": {}
    },
    "contact": {
      "facebook": "https://www.facebook.com/charliesbuns",
      "twitter_link": "https://twitter.com/CharliesBuns",
      "twitter_screen_name": "CharliesBuns",
      "website": "http://www.charliesbunsnstuff.com"
    }
  },
  {
    "name": "Big Boys Filipino Food Truck",
    "cuisine": "Filipino / American",
    "payment": "Cash or Cards",
    "description": "Bring people together using their sense of Filipino cuisine in a unique and flavorful way.",
    "schedule": {
      "monday": {},
      "tuesday": {
        "address": "101 Elliott Ave W, Seattle, WA 98119, USA",
        "open": "11:00",
        "close": "14:00",
        "geometry": {
          "coordinates": [
            -122.359573,
            47.619075
          ],
          "type": "Point"
        }
      },
      "wednesday": {},
      "thursday": {},
      "friday": {},
      "saturday": {},
      "sunday": {}
    },
    "contact": {
      "facebook": "https://www.facebook.com/bigboysfilipinofoodtruck",
      "twitter_link": "https://twitter.com/NateVibez",
      "twitter_screen_name": "NateVibez",
      "website": "http://www.bigboysfilipinofoodtruck.com/"
    }
  },
  {
    "name": "Bumbu Truck",
    "cuisine": "Indonesian",
    "payment": "Cash or Cards",
    "description": "Indonesian Street Food",
    "schedule": {
      "monday": {
        "address": "101 Elliott Ave W, Seattle, WA 98119, USA",
        "open": "11:00",
        "close": "14:00",
        "geometry": {
          "coordinates": [
            -122.359573,
            47.619075
          ],
          "type": "Point"
        }
      },
      "tuesday": {},
      "wednesday": {},
      "thursday": {
        "address": "3100 Northup Way, Bellevue, WA 98004, USA",
        "open": "11:00",
        "close": "14:00",
        "geometry": {
          "coordinates": [
            -122.191326,
            47.638197
          ],
          "type": "Point"
        }
      },
      "friday": {
        "address": "5000-5020 148th Ave SE, Redmond, WA 98052, USA",
        "open": "11:00",
        "close": "14:00",
        "geometry": {
          "coordinates": [
            -122.1422241,
            47.6525117
          ],
          "type": "Point"
        }
      },
      "saturday": {},
      "sunday": {}
    },
    "contact": {
      "facebook": "https://www.facebook.com/Bumbutruck",
      "twitter_link": "https://twitter.com/bumbutruck",
      "twitter_screen_name": "bumbutruck",
      "website": "http://www.bumbutruck.com"
    }
  },
  {
    "name": "Delicatessen Montanti",
    "cuisine": "Sandwiches",
    "payment": "Cash or Cards",
    "description": "East Coast deli sandwiches to die for!",
    "schedule": {
      "monday": {
        "address": "2600 Airport Way S, Seattle, WA 98134, USA",
        "open": "8:00",
        "close": "14:00",
        "geometry": {
          "coordinates": [
            -122.3209287,
            47.5798259
          ],
          "type": "Point"
        }
      },
      "tuesday": {
        "address": "Bellefield Office Park Conference Center, 1150 114th Ave SE, Bellevue, WA 98004, USA",
        "open": "8:00",
        "close": "14:00",
        "geometry": {
          "coordinates": [
            -122.1870081,
            47.60039039999999
          ],
          "type": "Point"
        }
      },
      "wednesday": {
        "address": "2600 Airport Way S, Seattle, WA 98134, USA",
        "open": "8:00",
        "close": "14:00",
        "geometry": {
          "coordinates": [
            -122.3209287,
            47.5798259
          ],
          "type": "Point"
        }
      },
      "thursday": {
        "address": "6100 4th Ave S, Seattle, WA 98108, USA",
        "open": "8:00",
        "close": "14:00",
        "geometry": {
          "coordinates": [
            -122.3288835,
            47.54714329999999
          ],
          "type": "Point"
        }
      },
      "friday": {
        "address": "2600 Airport Way S, Seattle, WA 98134, USA",
        "open": "8:00",
        "close": "14:00",
        "geometry": {
          "coordinates": [
            -122.3209287,
            47.5798259
          ],
          "type": "Point"
        }
      },
      "saturday": {},
      "sunday": {}
    },
    "contact": {
      "facebook": "https://www.facebook.com/pages/Delicatessen-Montanti/823352311016462",
      "twitter_link": "",
      "website": "http://montanti.wix.com/delicatessenmontanti"
    }
  },
  {
    "name": "Crisp Crêperie",
    "cuisine": "French",
    "payment": "Cash or Cards",
    "description": "Locally sourced, in-season, top-shelf ingredients in exquisitely crafted crêpes",
    "schedule": {
      "monday": {},
      "tuesday": {},
      "wednesday": {},
      "thursday": {
        "address": "2401 Utah Ave S, Seattle, WA 98134, USA",
        "open": "11:00",
        "close": "14:00",
        "geometry": {
          "coordinates": [
            -122.3358992,
            47.5810044
          ],
          "type": "Point"
        }
      },
      "friday": {},
      "saturday": {},
      "sunday": {}
    },
    "contact": {
      "facebook": "https://www.facebook.com/CrispSeattle",
      "twitter_link": "https://twitter.com/CrispSeattle",
      "twitter_screen_name": "CrispSeattle",
      "website": "http://www.crispseattle.com"
    }
  },
  {
    "name": "Fruit Chatter Box",
    "cuisine": "Sweets",
    "payment": "Cash or Cards",
    "description": "Fruit Chatter Box provides fresh, seasonal fresh fruit in cups or on a stick at local festivals and street fairs.",
    "schedule": {
      "monday": {},
      "tuesday": {},
      "wednesday": {},
      "thursday": {},
      "friday": {},
      "saturday": {},
      "sunday": {
        "address": "3401 Evanston Ave N, Seattle, WA 98103, USA",
        "open": "10:00",
        "close": "15:00",
        "geometry": {
          "coordinates": [
            -122.3516227,
            47.65011399999999
          ],
          "type": "Point"
        }
      }
    },
    "contact": {
      "facebook": "https://www.facebook.com/fruitchatterbox",
      "twitter_link": "https://twitter.com/fruitchatterbox",
      "twitter_screen_name": "fruitchatterbox",
      "website": "http://fruitchatterbox.squarespace.com/"
    }
  },
  {
    "name": "Curb Jumper Street Eats",
    "cuisine": "Sandwiches / Burgers",
    "payment": "Cash or Cards",
    "description": "Gourmet Sliders and Specialty Sandwiches",
    "schedule": {
      "monday": {
        "address": "Microsoft W Campus Access Rd, Redmond, WA 98052, USA",
        "open": "11:00",
        "close": "14:00",
        "geometry": {
          "coordinates": [
            -122.1405316,
            47.66032999999999
          ],
          "type": "Point"
        }
      },
      "tuesday": {},
      "wednesday": {
        "address": "Microsoft W Campus Access Rd, Redmond, WA 98052, USA",
        "open": "11:00",
        "close": "14:00",
        "geometry": {
          "coordinates": [
            -122.1405316,
            47.66032999999999
          ],
          "type": "Point"
        }
      },
      "thursday": {},
      "friday": {
        "address": "Microsoft W Campus Access Rd, Redmond, WA 98052, USA",
        "open": "11:00",
        "close": "14:00",
        "geometry": {
          "coordinates": [
            -122.1405316,
            47.66032999999999
          ],
          "type": "Point"
        }
      },
      "saturday": {},
      "sunday": {}
    },
    "contact": {
      "facebook": "https://www.facebook.com/CurbJumperStreetEats",
      "twitter_link": "https://twitter.com/CurbJumper206",
      "twitter_screen_name": "CurbJumper206",
      "website": "http://www.curbjumperstreeteats.com"
    }
  },
  {
    "name": "Flair Taco",
    "cuisine": "Mexican",
    "payment": "Cash Only",
    "description": "Regular taco truck in the Fremont neighborhood – open 7 days a week and late night.",
    "schedule": {
      "monday": {
        "address": "166 N 35th St, Seattle, WA 98103, USA",
        "open": "11:00",
        "close": "22:00",
        "geometry": {
          "coordinates": [
            -122.3553652,
            47.6516285
          ],
          "type": "Point"
        }
      },
      "tuesday": {
        "address": "166 N 35th St, Seattle, WA 98103, USA",
        "open": "11:00",
        "close": "22:00",
        "geometry": {
          "coordinates": [
            -122.3553652,
            47.6516285
          ],
          "type": "Point"
        }
      },
      "wednesday": {
        "address": "166 N 35th St, Seattle, WA 98103, USA",
        "open": "11:00",
        "close": "22:00",
        "geometry": {
          "coordinates": [
            -122.3553652,
            47.6516285
          ],
          "type": "Point"
        }
      },
      "thursday": {
        "address": "166 N 35th St, Seattle, WA 98103, USA",
        "open": "11:00",
        "close": "23:00",
        "geometry": {
          "coordinates": [
            -122.3553652,
            47.6516285
          ],
          "type": "Point"
        }
      },
      "friday": {
        "address": "166 N 35th St, Seattle, WA 98103, USA",
        "open": "11:00",
        "close": "4:00",
        "geometry": {
          "coordinates": [
            -122.3553652,
            47.6516285
          ],
          "type": "Point"
        }
      },
      "saturday": {
        "address": "166 N 35th St, Seattle, WA 98103, USA",
        "open": "11:00",
        "close": "4:00",
        "geometry": {
          "coordinates": [
            -122.3553652,
            47.6516285
          ],
          "type": "Point"
        }
      },
      "sunday": {}
    },
    "contact": {
      "facebook": "https://www.facebook.com/pages/Flair-Taco/197832600252403",
      "twitter_link": "",
      "website": ""
    }
  },
  {
    "name": "Budha Bear Bagels",
    "cuisine": "Sandwiches",
    "payment": "Cash or cards",
    "description": "Gourmet Bagel Sandwiches",
    "schedule": {
      "monday": {
        "address": "1735 Jefferson Ave, Tacoma, WA 98402, USA",
        "open": "11:00",
        "close": "14:00",
        "geometry": {
          "coordinates": [
            -122.4382339,
            47.2458914
          ],
          "type": "Point"
        }
      },
      "tuesday": {
        "address": "1735 Jefferson Ave, Tacoma, WA 98402, USA",
        "open": "11:00",
        "close": "14:00",
        "geometry": {
          "coordinates": [
            -122.4382339,
            47.2458914
          ],
          "type": "Point"
        }
      },
      "wednesday": {
        "address": "1735 Jefferson Ave, Tacoma, WA 98402, USA",
        "open": "11:00",
        "close": "14:00",
        "geometry": {
          "coordinates": [
            -122.4382339,
            47.2458914
          ],
          "type": "Point"
        }
      },
      "thursday": {},
      "friday": {
        "address": "107 W Stewart Ave, Puyallup, WA 98371, USA",
        "open": "11:00",
        "close": "14:00",
        "geometry": {
          "coordinates": [
            -122.294234,
            47.193229
          ],
          "type": "Point"
        }
      },
      "saturday": {},
      "sunday": {}
    },
    "contact": {
      "facebook": "https://www.facebook.com/BudhaBearBagelsCafe",
      "twitter_link": "https://twitter.com/BudhaBearBagels",
      "twitter_screen_name": "BudhaBearBagels",
      "website": ""
    }
  },
  
]
